stop_id,stop_code,stop_name,stop_desc,stop_lat,stop_lon,location_type,parent_station,zone_id
1,38831,בי''ס בר לב/בן יהודה, רחוב:בן יהודה 76 עיר: כפר סבא רציף:   קומה:  ,32.183939,34.917812,0,,6900
2,38832,הרצל/צומת בילו, רחוב:הרצל  עיר: קרית עקרון רציף:   קומה:  ,31.870034,34.819541,0,,469
3,38833,הנחשול/הדייגים, רחוב:הנחשול 30 עיר: ראשון לציון רציף:   קומה:  ,31.984558,34.782815,0,,8300
6,38836,ת. מרכזית לוד/הורדה, רחוב:  עיר: לוד רציף:   קומה:  ,31.956576,34.898125,0,,7000
7,38837,חנה אברך/וולקני, רחוב:חנה אברך 9 עיר: רחובות רציף:   קומה:  ,31.892166,34.796071,0,,8400
8,38838,הרצל/משה שרת, רחוב:הרצל 20 עיר: קרית עקרון רציף:   קומה:  ,31.857565,34.824106,0,,469
9,38839,הבנים/אלי כהן, רחוב:הבנים 4 עיר: קרית עקרון רציף:   קומה:  ,31.862305,34.821857,0,,469
10,38840,ויצמן/הבנים, רחוב:וייצמן 11 עיר: קרית עקרון רציף:   קומה:  ,31.865085,34.822237,0,,469
11,38841,האירוס/הכלנית, רחוב:האירוס 16 עיר: קרית עקרון רציף:   קומה:  ,31.865255,34.818914,0,,469
12,38842,הכלנית/הנרקיס, רחוב:הכלנית  עיר: קרית עקרון רציף:   קומה:  ,31.867601,34.818383,0,,469
14,38844,אלי כהן/לוחמי הגטאות, רחוב:אלי כהן 62 עיר: קרית עקרון רציף:   קומה:  ,31.862440,34.827023,0,,469
15,38845,שבזי/שבת אחים, רחוב:שבזי 40 עיר: קרית עקרון רציף:   קומה:  ,31.863501,34.828702,0,,469
16,38846,שבזי/ויצמן, רחוב:שבזי 31 עיר: קרית עקרון רציף:   קומה:  ,31.865348,34.827102,0,,469
17,38847,חיים בר לב/שדרות יצחק רבין, רחוב:חיים ברלב  עיר: ראשון לציון רציף:   קומה:  ,31.976725,34.763351,0,,8300
18,38848,מרכז לבריאות הנפש לב השרון, רחוב:  עיר: צור משה רציף:   קומה:  ,32.300344,34.912707,0,,276
19,38849,מרכז לבריאות הנפש לב השרון, רחוב:  עיר: צור משה רציף:   קומה:  ,32.301348,34.912601,0,,276
22,38852,הולצמן/המדע, רחוב:חיים הולצמן  עיר: רחובות רציף:   קומה:  ,31.914260,34.807966,0,,8400
24,38854,מחנה צריפין/מועדון, רחוב:  עיר: באר יעקב רציף:   קומה:  ,31.963668,34.836363,0,,2530
25,38855,הרצל/גולני, רחוב:הרצל 4 עיר: קרית עקרון רציף:   קומה:  ,31.856107,34.825239,0,,469
29,38859,הערבה, רחוב:הערבה  עיר: צור משה רציף:   קומה:  ,32.300033,34.910841,0,,276
30,38860,מבוא הגפן/מורד התאנה, רחוב:מבוא הגפן  עיר: ינוב רציף:   קומה:  ,32.305234,34.948647,0,,753
31,38861,מבוא הגפן/ההרחבה, רחוב:מבוא הגפן  עיר: ינוב רציף:   קומה:  ,32.304022,34.943393,0,,753
32,38862,ההרחבה א, רחוב:ההרחבה  עיר: גאולים רציף:   קומה:  ,32.302957,34.940529,0,,379
33,38863,ההרחבה ב, רחוב:ההרחבה  עיר: גאולים רציף:   קומה:  ,32.300264,34.939512,0,,379
34,38864,ההרחבה/הותיקים, רחוב:ההרחבה  עיר: גאולים רציף:   קומה:  ,32.298171,34.938705,0,,379
35,38865,רשות שדות התעופה/העליה, רחוב:שדרות העליה  עיר: נמל תעופה בן גוריון רציף:   קומה:  ,31.990876,34.897600,0,,1748
36,38866,כנף/ברוש, רחוב:כנף  עיר: נמל תעופה בן גוריון רציף:   קומה:  ,31.998767,34.879725,0,,1748
37,38867,החבורה/דב הוז, רחוב:החבורה 24 עיר: רחובות רציף:   קומה:  ,31.883019,34.818708,0,,8400
39,38869,בית הלוי ה, רחוב:  עיר: בית הלוי רציף:   קומה:  ,32.349776,34.926836,0,,14039
40,38870,הראשונים/כביש 5700, רחוב:המגדל 13 עיר: כפר חיים רציף:   קומה:  ,32.352953,34.899465,0,,193
42,38872,הגאון בן איש חי/צאלון, רחוב:  עיר: רחובות רציף:   קומה:  ,31.897286,34.775083,0,,8400
43,38873,עוקשי/לוי אשכול, רחוב:ישראל עוקשי 4 עיר: רחובות רציף:   קומה:  ,31.883941,34.807039,0,,8400
45,38875,מנוחה ונחלה/יהודה גורודיסקי, רחוב:מנוחה ונחלה 31 עיר: רחובות רציף:   קומה:  ,31.896755,34.816718,0,,8400
46,38876,גורודסקי/יחיאל פלדי, רחוב:יהודה גורודיסקי  עיר: רחובות רציף:   קומה:  ,31.898463,34.823461,0,,8400
48,38878,דרך הפארק/הרב נריה, רחוב:דרך הפארק 20 עיר: נתניה רציף:   קומה:  ,32.299994,34.878765,0,,7400
49,38879,התאנה/הגפן, רחוב:התאנה  עיר: יציץ רציף:   קומה:  ,31.865457,34.859437,0,,759
50,38880,התאנה/האלון, רחוב:התאנה  עיר: יציץ רציף:   קומה:  ,31.866772,34.864555,0,,759
51,38881,דרך הפרחים/יסמין, רחוב:דרך הפרחים 46 עיר: גדרה רציף:   קומה:  ,31.809325,34.784347,0,,2550
53,38883,יצחק רבין/פנחס ספיר, רחוב:דרך יצחק רבין  עיר: גדרה רציף:   קומה:  ,31.800370,34.778239,0,,2550
54,38884,מנחם בגין/יצחק רבין, רחוב:שדרות מנחם בגין 4 עיר: גדרה רציף:   קומה:  ,31.799224,34.782985,0,,2550
55,38885,חיים הרצוג/דולב, רחוב:חיים הרצוג 12 עיר: גדרה רציף:   קומה:  ,31.800334,34.785069,0,,2550
56,38886,בית ספר גוונים/ארז, רחוב:ארז 2 עיר: גדרה רציף:   קומה:  ,31.802319,34.786735,0,,2550
57,38887,דרך האילנות/אלון, רחוב:דרך האילנות 13 עיר: גדרה רציף:   קומה:  ,31.804595,34.786623,0,,2550
58,38888,דרך האילנות/מנחם בגין, רחוב:דרך האילנות 3 עיר: גדרה רציף:   קומה:  ,31.805041,34.785098,0,,2550
60,38890,וייצמן/מרבד הקסמים, רחוב:וייצמן 19 עיר: גדרה רציף:   קומה:  ,31.816579,34.779753,0,,2550
61,38891,צאלה/אלמוג, רחוב:צאלה 25 עיר: גדרה רציף:   קומה:  ,31.801182,34.787199,0,,2550
62,38892,גן חצב/צאלה, רחוב:צאלה 15 עיר: גדרה רציף:   קומה:  ,31.802279,34.786055,0,,2550
63,38893,פינס/לוינסון, רחוב:פינס 23 עיר: גדרה רציף:   קומה:  ,31.814676,34.777574,0,,2550
64,38894,פיינברג/שכביץ, רחוב:פיינברג 4 עיר: גדרה רציף:   קומה:  ,31.813285,34.775928,0,,2550
65,38895,בן-גוריון/פוקס, רחוב:שדרות בן גוריון 39 עיר: גדרה רציף:   קומה:  ,31.806959,34.773504,0,,2550
67,38897,בן-גוריון/בן גפן, רחוב:שדרות בן גוריון 46 עיר: גדרה רציף:   קומה:  ,31.806074,34.775072,0,,2550
68,38898,לוי אשכול/הרב דוד ישראל, רחוב:לוי אשכול  עיר: רחובות רציף:   קומה:  ,31.884187,34.805494,0,,8400
69,38899,שושן/אופנהיימר, רחוב:ד''ר אריה שושן  עיר: רחובות רציף:   קומה:  ,31.910117,34.805809,0,,8400
71,38901,הרב דוד ישראל/אריה דולצין, רחוב:הרב דוד ישראל 63 עיר: רחובות רציף:   קומה:  ,31.882474,34.805060,0,,8400
73,38903,קרוננברג/ארגמן, רחוב:יוסף קרוננברג  עיר: רחובות רציף:   קומה:  ,31.878667,34.811380,0,,8400
74,38904,יעקב פריימן/בנימין שמוטקין, רחוב:יעקב פריימן 9 עיר: ראשון לציון רציף:   קומה:  ,31.975479,34.813355,0,,8300
75,38905,אנילביץ'/שלום אש, רחוב:אנילביץ' 13 עיר: ראשון לציון רציף:   קומה:  ,31.982176,34.789451,0,,8300
76,38906,נחמיה/בית העלמין, רחוב:נחמיה 71 עיר: ראשון לציון רציף:   קומה:  ,31.948548,34.822422,0,,8300
77,38907,יהודה הלוי/יוחנן הסנדלר, רחוב:יהודה הלוי 85 עיר: ראשון לציון רציף:   קומה:  ,31.967698,34.816018,0,,8300
78,38908,ההגנה/חי''ש, רחוב:ההגנה 37 עיר: רחובות רציף:   קומה:  ,31.893823,34.824617,0,,8400
79,38909,קרית עקרון/כביש 411, רחוב:411  עיר: גזר רציף:   קומה:  ,31.854230,34.824545,0,,12926
80,38910,צומת חולדה/כביש 411, רחוב:411  עיר: גזר רציף:   קומה:  ,31.811764,34.900924,0,,12921
81,38911,גרינשפן/יגאל אלון, רחוב:גרינשפן 8 עיר: ראשון לציון רציף:   קומה:  ,31.956842,34.814839,0,,8300
82,38912,השומר/האבות, רחוב:השומר 22 עיר: ראשון לציון רציף:   קומה:  ,31.959818,34.814754,0,,8300
83,38913,משה שרת/יעקב קנר, רחוב:משה שרת 38 עיר: ראשון לציון רציף:   קומה:  ,31.992306,34.756910,0,,8300
84,38914,הדייגים/הנחשול, רחוב:הדייגים 47 עיר: ראשון לציון רציף:   קומה:  ,31.984969,34.782615,0,,8300
86,38916,יוסף בורג/משואות יצחק, רחוב:ד''ר יוסף בורג 9 עיר: ראשון לציון רציף:   קומה:  ,31.968053,34.818097,0,,8300
87,38917,יוסף בורג/כתריאל רפפורט, רחוב:ד''ר יוסף בורג  עיר: ראשון לציון רציף:   קומה:  ,31.968940,34.820041,0,,8300
89,38919,וייצמן/דרך יצחק רבין, רחוב:וייצמן  עיר: נס ציונה רציף:   קומה:  ,31.923042,34.798028,0,,7200
90,38920,שדרות משה דיין/יוסף לישנסקי, רחוב:שדרות משה דיין  עיר: ראשון לציון רציף:   קומה:  ,31.985680,34.764014,0,,8300
91,38921,השר חיים שפירא/יוסף ספיר, רחוב:השר חיים משה שפירא 4 עיר: ראשון לציון רציף:   קומה:  ,31.992583,34.751999,0,,8300
92,38922,השר חיים שפירא/הרב שלום ג'רופי, רחוב:השר חיים משה שפירא 16 עיר: ראשון לציון רציף:   קומה:  ,31.990757,34.755683,0,,8300
94,39001,שדרות יעקב/יוסף הנשיא, רחוב:שדרות יעקב 65 עיר: ראשון לציון רציף:   קומה:  ,31.950253,34.819242,0,,8300
95,39002,שדרות יעקב/עזרא, רחוב:שדרות יעקב 59 עיר: ראשון לציון רציף:   קומה:  ,31.951117,34.819757,0,,8300
97,39004,לייב יוספזון/יעקב ברמן, רחוב:יהודה לייב יוספזון  עיר: רחובות רציף:   קומה:  ,31.905052,34.818909,0,,8400
98,39005,הרב יעקב ברמן/הרב יהודה צבי מלצר, רחוב:הרב יעקב ברמן  עיר: רחובות רציף:   קומה:  ,31.901879,34.819443,0,,8400
99,39006,ברמן/מלצר, רחוב:הרב יעקב ברמן  עיר: רחובות רציף:   קומה:  ,31.902810,34.818922,0,,8400
100,39007,הנשיא הראשון/מכון-ויצמן, רחוב:הנשיא הראשון 55 עיר: רחובות רציף:   קומה:  ,31.904577,34.815294,0,,8400
101,39008,הנשיא הראשון/קיפניס, רחוב:הנשיא הראשון 56 עיר: רחובות רציף:   קומה:  ,31.904755,34.816661,0,,8400
104,39011,ז'בוטינסקי/החרמון, רחוב:ז'בוטינסקי 14 עיר: באר יעקב רציף:   קומה:  ,31.935917,34.837216,0,,2530
105,39012,הירדן/הערבה, רחוב:הירדן 21 עיר: באר יעקב רציף:   קומה:  ,31.937672,34.838858,0,,2530
107,39014,האלונים/הדקל, רחוב:שדרות האלונים  עיר: באר יעקב רציף:   קומה:  ,31.939037,34.831964,0,,2530
108,39015,האלונים/שמואל שפירא, רחוב:שדרות האלונים  עיר: באר יעקב רציף:   קומה:  ,31.942260,34.831681,0,,2530
109,39016,האלונים/שמואל שפירא, רחוב:שדרות האלונים 22 עיר: באר יעקב רציף:   קומה:  ,31.942271,34.831924,0,,2530
110,39017,האלונים א/הדקל, רחוב:שדרות האלונים  עיר: באר יעקב רציף:   קומה:  ,31.939656,34.832104,0,,2530
111,39018,פארק תעשיות שילת, רחוב:  עיר: שילת רציף:   קומה:  ,31.914324,35.023589,0,,1165
112,39019,פארק תעשיות שילת, רחוב:  עיר: שילת רציף:   קומה:  ,31.914816,35.023028,0,,1165
113,39020,רמב''ם/רבי ישראל אבי חצירא, רחוב:רמב''ם  עיר: יד רמב''ם רציף:   קומה:  ,31.903336,34.897696,0,,64
114,39021,רבי יוסף בן נאיים/רמב''ם, רחוב:רמב''ם  עיר: יד רמב''ם רציף:   קומה:  ,31.901161,34.897893,0,,64
115,39022,רמב''ם/רבי יצחק בניזרי, רחוב:רמב''ם  עיר: יד רמב''ם רציף:   קומה:  ,31.899575,34.898612,0,,64
116,39023,רמב''ם/רבי דוד עובדיה, רחוב:רמב''ם  עיר: יד רמב''ם רציף:   קומה:  ,31.897401,34.901343,0,,64
117,39024,עיריית מודיעין-מכבים-רעות, רחוב:  עיר: מודיעין מכבים רעות רציף:   קומה:  ,31.908499,35.007953,0,,1200
121,39028,חיים ברלב/מרדכי מקלף, רחוב:חיים ברלב 30 עיר: מודיעין מכבים רעות רציף:   קומה:  ,31.907828,35.000614,0,,1200
122,39029,חיים ברלב/מרדכי מקלף, רחוב:חיים ברלב  עיר: מודיעין מכבים רעות רציף:   קומה:  ,31.907603,35.000816,0,,1200
127,39034,אפרים קישון א, רחוב:אפרים קישון 3 עיר: באר יעקב רציף:   קומה:  ,31.942148,34.842194,0,,2530
128,39035,אלמוג סנטר/אפרים קישון, רחוב:אפרים קישון 20 עיר: באר יעקב רציף:   קומה:  ,31.941611,34.843113,0,,2530
131,39038,ת. רכבת באר יעקב, רחוב:  עיר: באר יעקב רציף:   קומה:  ,31.932831,34.828940,0,,2530
132,39039,גן חק''ל/רבאט, רחוב:רבאט  עיר: רמלה רציף:   קומה:  ,31.931068,34.884936,0,,8500
133,39040,גן חק''ל/רבאט, רחוב:רבאט  עיר: רמלה רציף:   קומה:  ,31.931204,34.884956,0,,8500
134,39041,קניון צ. רמלה לוד/דוכיפת, רחוב:דוכיפת  עיר: רמלה רציף:   קומה:  ,31.933881,34.887656,0,,8500
135,39042,היצירה/התקווה, רחוב:היצירה 2 עיר: רמלה רציף:   קומה:  ,31.929318,34.880077,0,,8500
136,39043,היצירה/התקווה, רחוב:היצירה 13 עיר: רמלה רציף:   קומה:  ,31.929195,34.880005,0,,8500
137,39044,עמל/היצירה, רחוב:עמל  עיר: רמלה רציף:   קומה:  ,31.932402,34.881442,0,,8500
141,39048,ישראל פרנקל/הרמב''ם, רחוב:ישראל פרנקל  עיר: רמלה רציף:   קומה:  ,31.934896,34.863001,0,,8500
142,39049,פרנקל/ויתקין, רחוב:ישראל פרנקל 10 עיר: רמלה רציף:   קומה:  ,31.936138,34.864910,0,,8500
143,39050,פרנקל/ויתקין, רחוב:ישראל פרנקל 9 עיר: רמלה רציף:   קומה:  ,31.936053,34.864943,0,,8500
144,39051,ישראל פרנקל/דוב הוז, רחוב:ישראל פרנקל 17 עיר: רמלה רציף:   קומה:  ,31.935488,34.863972,0,,8500
145,39052,יוספטל/הדס, רחוב:גיורא יוספטל 6 עיר: רמלה רציף:   קומה:  ,31.936107,34.857627,0,,8500
147,39054,עמיחי/מאיר בינט, רחוב:עמיחי 3 עיר: רמלה רציף:   קומה:  ,31.936308,34.856335,0,,8500
148,39055,השריון/הצנחנים, רחוב:השריון 9 עיר: רמלה רציף:   קומה:  ,31.933336,34.856045,0,,8500
149,39056,אהרון בוגנים/משה שרת, רחוב:משה שרת  עיר: רמלה רציף:   קומה:  ,31.933413,34.853906,0,,8500
150,39057,גרשון ש''ץ/שמחה הולצברג, רחוב:שמחה הולצברג 10 עיר: רמלה רציף:   קומה:  ,31.932532,34.853223,0,,8500
151,39058,הולצברג/שץ, רחוב:שמחה הולצברג 4 עיר: רמלה רציף:   קומה:  ,31.931660,34.853149,0,,8500
152,39059,אשכול/הרב שפירא, רחוב:לוי אשכול 11 עיר: רמלה רציף:   קומה:  ,31.929825,34.857194,0,,8500
153,39060,לוי אשכול/גטו ורשה, רחוב:לוי אשכול 35 עיר: רמלה רציף:   קומה:  ,31.927039,34.857171,0,,8500
159,39066,שמשון הגיבור/המסגד, רחוב:שמשון הגיבור  עיר: רמלה רציף:   קומה:  ,31.926441,34.866014,0,,8500
161,39068,ביאליק/חניתה, רחוב:ח.נ. ביאליק 19 עיר: רמלה רציף:   קומה:  ,31.924484,34.870366,0,,8500
162,39069,ביאליק/ירמיהו, רחוב:ח.נ. ביאליק 43 עיר: רמלה רציף:   קומה:  ,31.920550,34.868205,0,,8500
163,39070,א.ס לוי/סעדיה מרדכי, רחוב:א.ס. לוי 1 עיר: רמלה רציף:   קומה:  ,31.920900,34.861221,0,,8500
164,39071,רזיאל/זכריה, רחוב:שדרות דוד רזיאל  עיר: רמלה רציף:   קומה:  ,31.923671,34.862806,0,,8500
165,39072,חרוד א, רחוב:חרוד  עיר: ישרש רציף:   קומה:  ,31.912572,34.850134,0,,828
166,39073,חרוד/הירדן, רחוב:חרוד  עיר: ישרש רציף:   קומה:  ,31.915977,34.848217,0,,828
168,39075,הירדן/דן, רחוב:הירדן  עיר: ישרש רציף:   קומה:  ,31.915489,34.852140,0,,828
169,39076,עוזי חיטמן/שושנה דמארי, רחוב:עוזי חיטמן  עיר: רמלה רציף:   קומה:  ,31.917022,34.868261,0,,8500
170,39077,עוזי חיטמן/דליה רביקוביץ, רחוב:עוזי חיטמן 24 עיר: רמלה רציף:   קומה:  ,31.918782,34.870995,0,,8500
171,39078,עוזי חיטמן/חנוך לוין, רחוב:עוזי חיטמן 10 עיר: רמלה רציף:   קומה:  ,31.918696,34.873447,0,,8500
172,39079,אהוד מנור/חיטמן, רחוב:אהוד מנור  עיר: רמלה רציף:   קומה:  ,31.916945,34.874461,0,,8500
173,39080,שושנה דמארי/אהוד מנור, רחוב:שושנה דמארי  עיר: רמלה רציף:   קומה:  ,31.916148,34.872136,0,,8500
174,39081,שושנה דמארי/אהוד מנור, רחוב:שושנה דמארי  עיר: רמלה רציף:   קומה:  ,31.916235,34.873652,0,,8500
175,39082,אהוד מנור/עוזי חיטמן, רחוב:אהוד מנור 9 עיר: רמלה רציף:   קומה:  ,31.917837,34.874646,0,,8500
176,39083,עוזי חיטמן/שושנה דמארי, רחוב:עוזי חיטמן  עיר: רמלה רציף:   קומה:  ,31.917072,34.868374,0,,8500
179,39086,דרך האורנים/ברוש, רחוב:דרך האורנים  עיר: שילת רציף:   קומה:  ,31.920720,35.016294,0,,1165
180,39087,שקד/האורנים, רחוב:שקד  עיר: שילת רציף:   קומה:  ,31.922476,35.014364,0,,1165
181,39088,דרך החרוב/גפן, רחוב:דרך החרוב  עיר: שילת רציף:   קומה:  ,31.919711,35.020017,0,,1165
182,39089,דרך החרוב/גפן, רחוב:דרך החרוב  עיר: שילת רציף:   קומה:  ,31.919795,35.019979,0,,1165
183,39090,החרוב א, רחוב:דרך החרוב  עיר: שילת רציף:   קומה:  ,31.919184,35.023227,0,,1165
184,39091,החרוב א, רחוב:דרך החרוב  עיר: שילת רציף:   קומה:  ,31.919214,35.023415,0,,1165
185,39092,כפר רות, רחוב:  עיר: כפר רות רציף:   קומה:  ,31.910544,35.034349,0,,1166
186,39093,כפר רות, רחוב:  עיר: כפר רות רציף:   קומה:  ,31.910485,35.034441,0,,1166
188,39100,החוף הירוק, רחוב:שולמית 2 עיר: נתניה רציף:   קומה:  ,32.270586,34.837598,0,,7400
189,39101,רמת פולג, רחוב:שוש עטרי  עיר: נתניה רציף:   קומה:  ,32.272632,34.838726,0,,7400
190,39102,רמת פולג, רחוב:שוש עטרי  עיר: נתניה רציף:   קומה:  ,32.272420,34.838508,0,,7400
191,39103,אהוד מנור/מנחם בגין, רחוב:אהוד מנור 1 עיר: נתניה רציף:   קומה:  ,32.274543,34.841300,0,,7400
192,39104,אהוד מנור/מנחם בגין, רחוב:אהוד מנור 2 עיר: נתניה רציף:   קומה:  ,32.274870,34.842868,0,,7400
193,39105,שזר\אמנון ותמר, רחוב:זלמן שז''ר 12 עיר: נתניה רציף:   קומה:  ,32.275720,34.845201,0,,7400
194,39106,זלמן שז''ר/אמנון ותמר, רחוב:זלמן שז''ר 9 עיר: נתניה רציף:   קומה:  ,32.276562,34.846404,0,,7400
195,39107,אמנון ותמר/זלמן שז''ר, רחוב:זלמן שז''ר 18 עיר: נתניה רציף:   קומה:  ,32.276837,34.847509,0,,7400
197,39109,שדרות גולדה מאיר/משעול קיפניס, רחוב:שדרות גולדה מאיר 19 עיר: נתניה רציף:   קומה:  ,32.276590,34.851650,0,,7400
198,39110,553/מרכז מסחרי, רחוב:553  עיר: נתניה רציף:   קומה:  ,32.272784,34.856744,0,,7400
202,39114,האורזים/האר''י, רחוב:האר''י  עיר: נתניה רציף:   קומה:  ,32.312257,34.869559,0,,7400
203,39115,איקאה, רחוב:שדרות גיבורי ישראל  עיר: נתניה רציף:   קומה:  ,32.274579,34.858842,0,,7400
204,39116,בני גאון/האומנות, רחוב:האומנות 20 עיר: נתניה רציף:   קומה:  ,32.277321,34.862526,0,,7400
205,39117,שד. עובד בן עמי/קהילת צפת, רחוב:שדרות עובד בן עמי 109 עיר: נתניה רציף:   קומה:  ,32.306182,34.843640,0,,7400
206,39118,אירוס הארגמן/חבצלת החוף, רחוב:אירוס הארגמן 31 עיר: נתניה רציף:   קומה:  ,32.285717,34.844815,0,,7400
207,39119,זלמן שז''ר/שד. בן גוריון, רחוב:זלמן שז''ר  עיר: נתניה רציף:   קומה:  ,32.277679,34.848669,0,,7400
208,39120,חבצלת החוף/אירוס הארגמן, רחוב:חבצלת החוף 12 עיר: נתניה רציף:   קומה:  ,32.284724,34.846799,0,,7400
209,39121,שניאור/בן גוריון, רחוב:זלמן שניאור 8 עיר: נתניה רציף:   קומה:  ,32.282750,34.847757,0,,7400
210,39122,זלמן שניאור/אריה לייב יפה, רחוב:זלמן שניאור 7 עיר: נתניה רציף:   קומה:  ,32.282826,34.847550,0,,7400
211,39123,ש''י עגנון/קרן היסוד, רחוב:ש''י עגנון 27 עיר: נתניה רציף:   קומה:  ,32.282961,34.849189,0,,7400
212,39124,ש''י עגנון/קרן היסוד, רחוב:ש''י עגנון 28 עיר: נתניה רציף:   קומה:  ,32.283007,34.849377,0,,7400
213,39125,גבעת האירוסים/אירוס הארגמן, רחוב:אירוס הארגמן  עיר: נתניה רציף:   קומה:  ,32.287046,34.846117,0,,7400
214,39126,חבצלת החוף/אירוס הארגמן, רחוב:חבצלת החוף  עיר: נתניה רציף:   קומה:  ,32.286259,34.848222,0,,7400
215,39127,הבריגדה היהודית/החפץ חיים, רחוב:הבריגדה היהודית 30 עיר: נתניה רציף:   קומה:  ,32.296835,34.844671,0,,7400
216,39128,שד. בן גוריון/שמחה ארליך, רחוב:שמחה ארליך  עיר: נתניה רציף:   קומה:  ,32.300631,34.844687,0,,7400
217,39129,דוד רזניק/החפץ חיים, רחוב:החפץ חיים 1 עיר: נתניה רציף:   קומה:  ,32.295287,34.845476,0,,7400
218,39130,לוי אשכול/יעקב דורי, רחוב:לוי אשכול 21 עיר: נתניה רציף:   קומה:  ,32.296581,34.846977,0,,7400
219,39131,אריה מוצקין/ד''ר סטופ, רחוב:אריה מוצקין 13 עיר: נתניה רציף:   קומה:  ,32.296783,34.848266,0,,7400
220,39132,אריה מוצקין/ד''ר סטופ, רחוב:ד''ר סטופ 40 עיר: נתניה רציף:   קומה:  ,32.297040,34.848792,0,,7400
221,39133,הבריגדה היהודית/חיים ברלב, רחוב:הבריגדה היהודית 16 עיר: נתניה רציף:   קומה:  ,32.298055,34.845278,0,,7400
222,39134,בלומנפלד/יעקב דורי, רחוב:יעקב דורי 5 עיר: נתניה רציף:   קומה:  ,32.298675,34.846832,0,,7400
223,39135,שדרות בן גוריון/שמחה ארליך, רחוב:שמחה ארליך 6 עיר: נתניה רציף:   קומה:  ,32.299915,34.846765,0,,7400
224,39136,לוי אשכול/יעקב דורי, רחוב:לוי אשכול 7 עיר: נתניה רציף:   קומה:  ,32.298448,34.848027,0,,7400
226,39138,אריה מוצקין/שמחה ארליך, רחוב:שמחה ארליך 18 עיר: נתניה רציף:   קומה:  ,32.299316,34.849289,0,,7400
227,39139,בן עמי/שמחה ארליך, רחוב:שדרות עובד בן עמי  עיר: נתניה רציף:   קומה:  ,32.302868,34.843196,0,,7400
229,39141,בית ספר אלדד/שדרות גולדה מאיר, רחוב:שדרות גולדה מאיר  עיר: נתניה רציף:   קומה:  ,32.276979,34.854475,0,,7400
230,39142,בן עמי/קהילת צפת, רחוב:שדרות עובד בן עמי  עיר: נתניה רציף:   קומה:  ,32.305200,34.842963,0,,7400
232,39144,'נאות גולדה א, רחוב:שדרות גולדה מאיר  עיר: נתניה רציף:   קומה:  ,32.277828,34.851875,0,,7400
233,39145,'נאות גולדה ב, רחוב:שדרות גולדה מאיר  עיר: נתניה רציף:   קומה:  ,32.278509,34.852140,0,,7400
234,39146,נאות גולדה\חזני, רחוב:שדרות גולדה מאיר 2 עיר: נתניה רציף:   קומה:  ,32.278717,34.852186,0,,7400
235,39147,פנקס/57, רחוב:דוד פנקס  עיר: נתניה רציף:   קומה:  ,32.323511,34.874761,0,,7400
236,39148,ש''י עגנון/יאנוש קורצ'אק, רחוב:ש''י עגנון 1 עיר: נתניה רציף:   קומה:  ,32.280674,34.851838,0,,7400
237,39149,רופין/שד. פנחס לבון, רחוב:שדרות פנחס לבון  עיר: נתניה רציף:   קומה:  ,32.280794,34.852968,0,,7400
238,39150,ש''י עגנון/יצחק אפשטיין, רחוב:ש''י עגנון 7 עיר: נתניה רציף:   קומה:  ,32.281577,34.850372,0,,7400
239,39151,ש''י עגנון/יצחק אפשטיין, רחוב:ש''י עגנון 8 עיר: נתניה רציף:   קומה:  ,32.281435,34.850746,0,,7400
240,39152,זלמן שניאור/ש''י עגנון, רחוב:זלמן שניאור 27 עיר: נתניה רציף:   קומה:  ,32.283901,34.849353,0,,7400
241,39153,לבון/עגנון, רחוב:שדרות פנחס לבון 22 עיר: נתניה רציף:   קומה:  ,32.282133,34.853363,0,,7400
242,39154,יצחק קצנלסון/ד''ר וייסלברגר, רחוב:יצחק קצנלסון 24 עיר: נתניה רציף:   קומה:  ,32.284632,34.852016,0,,7400
243,39155,רוטנברג\נורדאו, רחוב:פנחס רוטנברג 9 עיר: נתניה רציף:   קומה:  ,32.279977,34.853851,0,,7400
244,39156,פנחס לבון/ישראל בר יהודה, רחוב:שדרות פנחס לבון 31 עיר: נתניה רציף:   קומה:  ,32.283652,34.854382,0,,7400
245,39157,השר ישראל בר יהודה/נורדאו, רחוב:נורדאו 37 עיר: נתניה רציף:   קומה:  ,32.281378,34.856436,0,,7400
246,39158,מנדלי מוכר ספרים/נורדאו, רחוב:נורדאו 16 עיר: נתניה רציף:   קומה:  ,32.283807,34.857340,0,,7400
247,39160,יצחק קצנלסון/שדרות פנחס לבון, רחוב:יצחק קצנלסון 8 עיר: נתניה רציף:   קומה:  ,32.285573,34.853590,0,,7400
248,39161,לבון/וייסלברגר תאודור, רחוב:שדרות פנחס לבון  עיר: נתניה רציף:   קומה:  ,32.285451,34.854552,0,,7400
249,39162,שד. בן צבי/שד. פנחס לבון, רחוב:שדרות פנחס לבון 2 עיר: נתניה רציף:   קומה:  ,32.286750,34.854833,0,,7400
250,39163,לבון/שלום עליכם, רחוב:שדרות פנחס לבון 11 עיר: נתניה רציף:   קומה:  ,32.286557,34.855052,0,,7400
251,39164,הרב אבו חצירא/הרב רפאל אנקווה, רחוב:הרב רפאל אנקווה 12 עיר: נתניה רציף:   קומה:  ,32.285705,34.856197,0,,7400
252,39165,שדרות גיבורי ישראל/האומנות, רחוב:שדרות גיבורי ישראל 16 עיר: נתניה רציף:   קומה:  ,32.279278,34.860441,0,,7400
253,39166,גיבורי ישראל/האומנות, רחוב:שדרות גיבורי ישראל 5 עיר: נתניה רציף:   קומה:  ,32.276114,34.859673,0,,7400
254,39167,שדרות גיבורי ישראל/הבונים, רחוב:שדרות גיבורי ישראל 20 עיר: נתניה רציף:   קומה:  ,32.279935,34.860652,0,,7400
255,39168,שד. גיבורי ישראל/הבונים, רחוב:שדרות גיבורי ישראל 15 עיר: נתניה רציף:   קומה:  ,32.280886,34.861197,0,,7400
257,39170,שד. גיבורי ישראל/התרופה, רחוב:שדרות גיבורי ישראל 36 עיר: נתניה רציף:   קומה:  ,32.282477,34.861469,0,,7400
258,39171,שד. גיבורי ישראל/האומנות, רחוב:שדרות גיבורי ישראל  עיר: נתניה רציף:   קומה:  ,32.277449,34.860116,0,,7400
259,39172,האומנות/יד חרוצים, רחוב:יד חרוצים 3 עיר: נתניה רציף:   קומה:  ,32.278292,34.863477,0,,7400
260,39173,הבונים/יד חרוצים, רחוב:יד חרוצים 14 עיר: נתניה רציף:   קומה:  ,32.280079,34.864056,0,,7400
261,39174,שדרות גיבורי ישראל/התרופה, רחוב:שדרות גיבורי ישראל 19 עיר: נתניה רציף:   קומה:  ,32.283436,34.862011,0,,7400
262,39175,התרופה/אריה רגב, רחוב:התרופה 14 עיר: נתניה רציף:   קומה:  ,32.282698,34.863651,0,,7400
263,39176,השיאים/יד חרוצים, רחוב:יד חרוצים  עיר: נתניה רציף:   קומה:  ,32.283683,34.865281,0,,7400
264,39177,בית חרושת טבע, רחוב:שדרות גיבורי ישראל 48 עיר: נתניה רציף:   קומה:  ,32.285635,34.862489,0,,7400
265,39178,בית חרושת אביק, רחוב:שדרות גיבורי ישראל  עיר: נתניה רציף:   קומה:  ,32.285429,34.862662,0,,7400
266,39179,הדרים/הראשונים, רחוב:ההדרים  עיר: עין ורד רציף:   קומה:  ,32.264318,34.931993,0,,157
267,39180,שד. גיבורי ישראל/האומנות, רחוב:שדרות גיבורי ישראל  עיר: נתניה רציף:   קומה:  ,32.277657,34.859914,0,,7400
268,39181,השלום\הגביש, רחוב:הארי טרומן  עיר: נתניה רציף:   קומה:  ,32.286298,34.863673,0,,7400
269,39182,המחשב/הצורן, רחוב:המחשב 2 עיר: נתניה רציף:   קומה:  ,32.287621,34.865010,0,,7400
270,39183,עירייה, רחוב:הצורן  עיר: נתניה רציף:   קומה:  ,32.288720,34.865650,0,,7400
271,39184,יצחק גרינבוים/אפרים אלנקווה, רחוב:יצחק גרינבוים 19 עיר: נתניה רציף:   קומה:  ,32.294995,34.849667,0,,7400
272,39185,יצחק גרינבוים/ד''ר שמורק, רחוב:יצחק גרינבוים 8 עיר: נתניה רציף:   קומה:  ,32.294705,34.851791,0,,7400
273,39186,גרינבוים/בן צבי, רחוב:יצחק גרינבוים 5 עיר: נתניה רציף:   קומה:  ,32.294485,34.851985,0,,7400
274,39187,בן צבי/גרנבוים, רחוב:שדרות בן צבי 102 עיר: נתניה רציף:   קומה:  ,32.293898,34.852491,0,,7400
275,39188,משטרה/בן צבי, רחוב:שדרות בן צבי 87 עיר: נתניה רציף:   קומה:  ,32.294922,34.852932,0,,7400
276,39189,הנרייטה סולד/סטופ, רחוב:ד''ר שמורק 18 עיר: נתניה רציף:   קומה:  ,32.295690,34.851774,0,,7400
277,39190,הנביאים/שד. בן צבי, רחוב:שדרות בן צבי 74 עיר: נתניה רציף:   קומה:  ,32.296860,34.853099,0,,7400
278,39191,הנביאים/נצח ישראל, רחוב:הנביאים 4 עיר: נתניה רציף:   קומה:  ,32.297185,34.854010,0,,7400
280,39193,שד. בן צבי/שמחה ארליך, רחוב:שדרות בן צבי  עיר: נתניה רציף:   קומה:  ,32.297873,34.853570,0,,7400
281,39194,יחזקאל\הנביאים, רחוב:יחזקאל בן בוזי 42 עיר: נתניה רציף:   קומה:  ,32.297381,34.855518,0,,7400
282,39195,בן צבי/פלוגת מכבי, רחוב:שדרות בן צבי 56 עיר: נתניה רציף:   קומה:  ,32.300044,34.853804,0,,7400
283,39196,בן צבי/נחום, רחוב:שדרות בן צבי  עיר: נתניה רציף:   קומה:  ,32.301071,34.854280,0,,7400
284,39197,נחום/ישעיהו, רחוב:נחום 1 עיר: נתניה רציף:   קומה:  ,32.300590,34.854645,0,,7400
285,39198,נחום/ישעיהו, רחוב:נחום 4 עיר: נתניה רציף:   קומה:  ,32.300460,34.854938,0,,7400
286,39199,בית הכנסת הבוכרים/בן בוזי, רחוב:יחזקאל בן בוזי 33 עיר: נתניה רציף:   קומה:  ,32.297593,34.855673,0,,7400
287,39200,יחזקאל בן בוזי/מרים, רחוב:יחזקאל בן בוזי 34 עיר: נתניה רציף:   קומה:  ,32.298665,34.855905,0,,7400
288,39201,'יחזקאל/נחום א, רחוב:יחזקאל בן בוזי 15 עיר: נתניה רציף:   קומה:  ,32.299807,34.856413,0,,7400
290,39203,בן צבי/נחום, רחוב:שדרות בן צבי 46 עיר: נתניה רציף:   קומה:  ,32.302485,34.854339,0,,7400
291,39204,בית ספר טשרניחובסקי/בן צבי, רחוב:שדרות בן צבי 14 עיר: נתניה רציף:   קומה:  ,32.309555,34.854597,0,,7400
292,39205,בית ספר טשרניחובסקי/בן צבי, רחוב:שדרות בן צבי  עיר: נתניה רציף:   קומה:  ,32.309604,34.854846,0,,7400
294,39207,מרכז גריאטרי דורות/הנביאים, רחוב:הנביאים 21 עיר: נתניה רציף:   קומה:  ,32.296945,34.858045,0,,7400
295,39208,בן עמי/קניג, רחוב:שדרות עובד בן עמי  עיר: נתניה רציף:   קומה:  ,32.310048,34.844550,0,,7400
296,39209,בן עמי\הילה, רחוב:שדרות עובד בן עמי  עיר: נתניה רציף:   קומה:  ,32.313311,34.845828,0,,7400
297,39210,בן עמי\צהלה, רחוב:שדרות עובד בן עמי 29 עיר: נתניה רציף:   קומה:  ,32.314372,34.845906,0,,7400
298,39211,שד. עובד בן עמי/ברוך רם, רחוב:שדרות עובד בן עמי  עיר: נתניה רציף:   קומה:  ,32.316395,34.846121,0,,7400
299,39212,ז'בוטינסקי\סמיל, רחוב:שדרות ז'בוטינסקי 33 עיר: נתניה רציף:   קומה:  ,32.321443,34.848668,0,,7400
300,39213,שד. בן אב''י/הרעות, רחוב:שדרות בן אב''י 5 עיר: נתניה רציף:   קומה:  ,32.319471,34.848923,0,,7400
301,39214,ז'בוטינסקי/קרליבך, רחוב:שדרות ז'בוטינסקי 7 עיר: נתניה רציף:   קומה:  ,32.324404,34.849462,0,,7400
302,39215,בן צבי/הגר''א, רחוב:שדרות בן צבי 6 עיר: נתניה רציף:   קומה:  ,32.311076,34.854911,0,,7400
303,39216,שד. בן צבי/היהלומן אברהם, רחוב:שדרות בן צבי 9 עיר: נתניה רציף:   קומה:  ,32.310926,34.855105,0,,7400
304,39217,בית ספר טשרניחובסקי/הגר''א, רחוב:הגר''א 9 עיר: נתניה רציף:   קומה:  ,32.310378,34.856482,0,,7400
305,39218,בן שלום\בנימין, רחוב:עובדיה בן שלום 36 עיר: נתניה רציף:   קומה:  ,32.313400,34.855784,0,,7400
307,39220,שד. בנימין/שלום שבזי, רחוב:שדרות בנימין  עיר: נתניה רציף:   קומה:  ,32.315197,34.854281,0,,7400
308,39221,שד. בנימין/הרב טביב, רחוב:שדרות בנימין 105 עיר: נתניה רציף:   קומה:  ,32.315887,34.854722,0,,7400
309,39222,שד. בן אב''י/שד. בנימין, רחוב:שדרות בנימין 78 עיר: נתניה רציף:   קומה:  ,32.317684,34.854885,0,,7400
310,39223,עובדיה בן שלום/רמב''ם, רחוב:עובדיה בן שלום 22 עיר: נתניה רציף:   קומה:  ,32.315389,34.856864,0,,7400
311,39224,עובדיה בן שלום/רמב''ם, רחוב:עובדיה בן שלום  עיר: נתניה רציף:   קומה:  ,32.315897,34.857335,0,,7400
312,39225,אליעזר בן יהודה/אברהם אבו שדיד, רחוב:אליעזר בן יהודה 48 עיר: נתניה רציף:   קומה:  ,32.319667,34.851035,0,,7400
313,39226,סמילנסקי/ירמיהו הלפרין, רחוב:סמילנסקי 70 עיר: נתניה רציף:   קומה:  ,32.322012,34.849700,0,,7400
315,39228,סמילנסקי/שדרות ירושלים, רחוב:סמילנסקי 42 עיר: נתניה רציף:   קומה:  ,32.324634,34.852055,0,,7400
316,39229,דיזנגוף/ירושלים, רחוב:דיזנגוף 52 עיר: נתניה רציף:   קומה:  ,32.326185,34.851932,0,,7400
317,39230,סמילנסקי/שד. ירושלים, רחוב:שדרות ירושלים 11 עיר: נתניה רציף:   קומה:  ,32.324914,34.852771,0,,7400
318,39231,שד. בן אב''י/אייזיק רמבה, רחוב:שדרות בן אב''י 53 עיר: נתניה רציף:   קומה:  ,32.318318,34.854117,0,,7400
319,39232,שד. בן אב''י/שד. בנימין, רחוב:שדרות בנימין 75 עיר: נתניה רציף:   קומה:  ,32.318437,34.855357,0,,7400
320,39233,שד. בנימין/תחכמוני, רחוב:שדרות בנימין 62 עיר: נתניה רציף:   קומה:  ,32.320059,34.855471,0,,7400
321,39234,שד. בנימין/תחכמוני, רחוב:שדרות בנימין 51 עיר: נתניה רציף:   קומה:  ,32.321473,34.856082,0,,7400
322,39235,שד.ירושלים/שד. בנימין, רחוב:שדרות ירושלים 32 עיר: נתניה רציף:   קומה:  ,32.323668,34.855526,0,,7400
323,39236,שד. בנימין/שד. ירושלים, רחוב:שדרות בנימין 31 עיר: נתניה רציף:   קומה:  ,32.323959,34.856728,0,,7400
324,39237,שד. בנימין/שד. ירושלים, רחוב:שדרות בנימין 34 עיר: נתניה רציף:   קומה:  ,32.324201,34.856548,0,,7400
325,39238,חרלפ\הגרא, רחוב:הרב חרל''פ 4 עיר: נתניה רציף:   קומה:  ,32.311360,34.860074,0,,7400
326,39239,האר''י/דן שומרון, רחוב:האר''י  עיר: נתניה רציף:   קומה:  ,32.312051,34.860675,0,,7400
327,39240,פתח תקווה/אצ''ל, רחוב:פתח תקווה 77 עיר: נתניה רציף:   קומה:  ,32.317886,34.857972,0,,7400
328,39242,פתח תקווה/בן אבי, רחוב:פתח תקווה 78 עיר: נתניה רציף:   קומה:  ,32.317978,34.857753,0,,7400
329,39243,פתח תקווה/טיומקין, רחוב:פתח תקווה 44 עיר: נתניה רציף:   קומה:  ,32.321373,34.859336,0,,7400
330,39244,פתח תקווה/טיומקין, רחוב:פתח תקווה 45 עיר: נתניה רציף:   קומה:  ,32.321309,34.859504,0,,7400
331,39245,פתח תקווה/החלוצים, רחוב:צבי אלון 19 עיר: נתניה רציף:   קומה:  ,32.325907,34.860642,0,,7400
332,39246,הרצל/עולי הגרדום, רחוב:הרצל 98 עיר: נתניה רציף:   קומה:  ,32.325412,34.864958,0,,7400
333,39247,הרצל/עולי הגרדום, רחוב:הרצל 91 עיר: נתניה רציף:   קומה:  ,32.325694,34.864841,0,,7400
334,39248,אוסישקין/שד. ירושלים, רחוב:אוסישקין 31 עיר: נתניה רציף:   קומה:  ,32.326482,34.851215,0,,7400
335,39249,אוסישקין/ראשון לציון, רחוב:אוסישקין 5 עיר: נתניה רציף:   קומה:  ,32.329177,34.851367,0,,7400
336,39250,דיזנגוף/דוד רמז, רחוב:דיזנגוף 40 עיר: נתניה רציף:   קומה:  ,32.327710,34.852699,0,,7400
337,39251,כיכר העצמאות, רחוב:דוד המלך  עיר: נתניה רציף:   קומה:  ,32.331073,34.851149,0,,7400
338,39252,דיזנגוף/הרצל, רחוב:הרצל 9 עיר: נתניה רציף:   קומה:  ,32.329628,34.854317,0,,7400
339,39253,ששת הימים\ויצמן, רחוב:מלחמת ששת הימים 20 עיר: נתניה רציף:   קומה:  ,32.331575,34.859631,0,,7400
340,39254,כיכר פרלמן, רחוב:שמואל הנציב 23 עיר: נתניה רציף:   קומה:  ,32.332163,34.856506,0,,7400
341,39255,דוד המלך/שד. ניצה, רחוב:דוד המלך 30 עיר: נתניה רציף:   קומה:  ,32.334329,34.852307,0,,7400
342,39256,בי''ס יהודה הנשיא, רחוב:שלמה המלך 34 עיר: נתניה רציף:   קומה:  ,32.337778,34.854235,0,,7400
344,39258,אנדריוס/בורוכוב, רחוב:בורוכוב 4 עיר: נתניה רציף:   קומה:  ,32.335749,34.856207,0,,7400
345,39259,בורוכוב/יהודה הנשיא, רחוב:בורוכוב 18 עיר: נתניה רציף:   קומה:  ,32.337770,34.856455,0,,7400
346,39260,בורוכוב/יהודה הנשיא, רחוב:בורוכוב 19 עיר: נתניה רציף:   קומה:  ,32.337989,34.856296,0,,7400
347,39261,ד''ר יהושע טהון/ליאון רייך, רחוב:ד''ר יהושע טהון 12 עיר: נתניה רציף:   קומה:  ,32.339815,34.856594,0,,7400
348,39262,הרב הרצוג/שלמה המלך, רחוב:שלמה המלך 58 עיר: נתניה רציף:   קומה:  ,32.341132,34.854239,0,,7400
349,39263,יהושע טהון\איכי, רחוב:ד''ר יהושע טהון 7 עיר: נתניה רציף:   קומה:  ,32.339485,34.856422,0,,7400
350,39264,יהושע טהון/הרצוג, רחוב:ד''ר יהושע טהון 22 עיר: נתניה רציף:   קומה:  ,32.341076,34.856578,0,,7400
351,39265,ד''ר יהושע טהון/הרב הרצוג, רחוב:ד''ר יהושע טהון 17 עיר: נתניה רציף:   קומה:  ,32.341278,34.856356,0,,7400
353,39267,ת. מרכזית נתניה, רחוב:שדרות בנימין 7 עיר: נתניה רציף:   קומה:  ,32.327371,34.858238,0,,7400
354,39269,ויצמן/הרצל, רחוב:שדרות חיים וייצמן 5 עיר: נתניה רציף:   קומה:  ,32.328953,34.858496,0,,7400
355,39270,שוק עירוני, רחוב:שדרות חיים וייצמן 16 עיר: נתניה רציף:   קומה:  ,32.330186,34.858976,0,,7400
356,39271,ויצמן/ששת הימים, רחוב:שדרות חיים וייצמן  עיר: נתניה רציף:   קומה:  ,32.331154,34.858841,0,,7400
357,39272,מלחמת ששת הימים/ישראל זנגוויל, רחוב:מלחמת ששת הימים 36 עיר: נתניה רציף:   קומה:  ,32.331518,34.861524,0,,7400
358,39273,הרצל/מינץ, רחוב:הרצל 65 עיר: נתניה רציף:   קומה:  ,32.326819,34.862473,0,,7400
359,39274,הרצל/בנימין מינץ, רחוב:הרצל 82 עיר: נתניה רציף:   קומה:  ,32.326176,34.863338,0,,7400
360,39275,דרך רזיאל/היהלום, רחוב:דרך רזיאל 19 עיר: נתניה רציף:   קומה:  ,32.329126,34.861776,0,,7400
361,39276,דרך רזיאל/מלחמת ששת הימים, רחוב:דרך רזיאל 39 עיר: נתניה רציף:   קומה:  ,32.331684,34.863264,0,,7400
362,39277,דרך רזיאל/מלחמת ששת הימים, רחוב:דרך רזיאל 26 עיר: נתניה רציף:   קומה:  ,32.331629,34.863480,0,,7400
363,39278,הרב יצחק ניסנבוים/משה גליקסון, רחוב:משה גליקסון 10 עיר: נתניה רציף:   קומה:  ,32.331080,34.865072,0,,7400
364,39279,דרך רזיאל/הרב ריינס, רחוב:דרך רזיאל 53 עיר: נתניה רציף:   קומה:  ,32.332350,34.864247,0,,7400
365,39280,דרך רזיאל/הרב ריינס, רחוב:הרב ריינס 6 עיר: נתניה רציף:   קומה:  ,32.333132,34.865237,0,,7400
366,39281,י.ח. ברנר/שד. חיים וייצמן, רחוב:שדרות חיים וייצמן 53 עיר: נתניה רציף:   קומה:  ,32.334658,34.859208,0,,7400
367,39282,ויצמן\שפירא משה, רחוב:שדרות חיים וייצמן 48 עיר: נתניה רציף:   קומה:  ,32.334382,34.859411,0,,7400
368,39283,שדרות וייצמן/יהודה הנשיא, רחוב:שדרות חיים וייצמן  עיר: נתניה רציף:   קומה:  ,32.337669,34.859541,0,,7400
369,39284,וייצמן/שרת, רחוב:שדרות חיים וייצמן 76 עיר: נתניה רציף:   קומה:  ,32.337702,34.859784,0,,7400
370,39285,וייצמן/שרת, רחוב:שדרות חיים וייצמן 86 עיר: נתניה רציף:   קומה:  ,32.339039,34.859959,0,,7400
371,39286,וייצמן/איכילוב, רחוב:שדרות חיים וייצמן 95 עיר: נתניה רציף:   קומה:  ,32.339836,34.859845,0,,7400
372,39287,הרב הרצוג/שדרות חיים וייצמן, רחוב:שדרות חיים וייצמן 109 עיר: נתניה רציף:   קומה:  ,32.341324,34.860090,0,,7400
373,39288,שד.וייצמן/סוקולוב, רחוב:שדרות חיים וייצמן 110 עיר: נתניה רציף:   קומה:  ,32.341515,34.860330,0,,7400
374,39289,בית הבאר/נחום סוקולוב, רחוב:נחום סוקולוב 19 עיר: נתניה רציף:   קומה:  ,32.342087,34.860981,0,,7400
376,39291,הרב ריינס/עמק חפר, רחוב:הרב ריינס 41 עיר: נתניה רציף:   קומה:  ,32.336476,34.865621,0,,7400
377,39292,גולומב/טרומפלדור, רחוב:אליהו גולומב 45 עיר: נתניה רציף:   קומה:  ,32.341185,34.863344,0,,7400
378,39293,שרת/אליהו גולומב, רחוב:אליהו גולומב 31 עיר: נתניה רציף:   קומה:  ,32.339896,34.864040,0,,7400
379,39294,נחום סוקולוב/פייר ז'ילבר, רחוב:נחום סוקולוב 41 עיר: נתניה רציף:   קומה:  ,32.341611,34.865289,0,,7400
380,39295,נחום סוקולוב/פייר ז'ילבר, רחוב:נחום סוקולוב 64 עיר: נתניה רציף:   קומה:  ,32.341410,34.865660,0,,7400
381,39296,בית חולים לניאדו, רחוב:הרב מיימון 4 עיר: נתניה רציף:   קומה:  ,32.346220,34.857721,0,,7400
382,39297,הגדוד העברי/דברי חיים, רחוב:דברי חיים 47 עיר: נתניה רציף:   קומה:  ,32.347980,34.857421,0,,7400
383,39298,אח''י דקר/דברי חיים, רחוב:דברי חיים 34 עיר: נתניה רציף:   קומה:  ,32.347780,34.857511,0,,7400
384,39299,הרב חי טייב/הרב מיימון, רחוב:הרב מיימון 5 עיר: נתניה רציף:   קומה:  ,32.346330,34.857925,0,,7400
385,39300,הרב מיימון/מוריה, רחוב:הרב מיימון 30 עיר: נתניה רציף:   קומה:  ,32.345629,34.860975,0,,7400
386,39301,הרב מיימון/מוריה, רחוב:הרב מיימון 27 עיר: נתניה רציף:   קומה:  ,32.345805,34.860892,0,,7400
387,39302,הגפן\הגדוד העבר, רחוב:הגפן 3 עיר: נתניה רציף:   קומה:  ,32.348002,34.861079,0,,7400
388,39303,הגפן\החרוב, רחוב:הגפן 4 עיר: נתניה רציף:   קומה:  ,32.348020,34.861189,0,,7400
389,39304,הגפן/שד. עין התכלת, רחוב:הגפן 19 עיר: נתניה רציף:   קומה:  ,32.349772,34.861387,0,,7400
390,39305,הגפן/שד. עין התכלת, רחוב:הגפן 18 עיר: נתניה רציף:   קומה:  ,32.349716,34.861483,0,,7400
391,39306,קמיל הויסמנס/רבי עקיבא, רחוב:קמיל הויסמנס 6 עיר: נתניה רציף:   קומה:  ,32.342521,34.862124,0,,7400
392,39307,בלפור/קמיל הויסמנס, רחוב:קמיל הויסמנס 16 עיר: נתניה רציף:   קומה:  ,32.344115,34.862370,0,,7400
393,39308,בלפור/קמיל הויסמנס, רחוב:קמיל הויסמנס 29 עיר: נתניה רציף:   קומה:  ,32.344480,34.862313,0,,7400
395,39310,הגפן/השקד, רחוב:השקד 39 עיר: נתניה רציף:   קומה:  ,32.351849,34.862522,0,,7400
396,39311,הגפן/השקד, רחוב:השקד 38 עיר: נתניה רציף:   קומה:  ,32.351904,34.862728,0,,7400
399,39314,צומת תל יצחק, רחוב:553  עיר: בית יהושע רציף:   קומה:  ,32.255564,34.872795,0,,288
407,39323,השומרון/ותיקים, רחוב:השומרון 23 עיר: אבן יהודה רציף:   קומה:  ,32.263188,34.888636,0,,182
408,39324,השומרון/ותיקים, רחוב:השומרון 28 עיר: אבן יהודה רציף:   קומה:  ,32.263559,34.887886,0,,182
409,39325,ההדרים/הלוחמים, רחוב:ההדרים 27 עיר: אבן יהודה רציף:   קומה:  ,32.260699,34.889190,0,,182
410,39326,ההדרים/הלוחמים, רחוב:ההדרים 32 עיר: אבן יהודה רציף:   קומה:  ,32.260831,34.889346,0,,182
411,39327,המתמיד/הנוטע, רחוב:הנוטע 4 עיר: אבן יהודה רציף:   קומה:  ,32.267187,34.887135,0,,182
412,39328,הנוטע/רקפות, רחוב:הנוטע 1 עיר: אבן יהודה רציף:   קומה:  ,32.267148,34.887038,0,,182
413,39329,המייסדים/צבר, רחוב:המייסדים 77 עיר: אבן יהודה רציף:   קומה:  ,32.269811,34.885011,0,,182
414,39330,מועצה מקומית, רחוב:המייסדים 62 עיר: אבן יהודה רציף:   קומה:  ,32.269775,34.888829,0,,182
417,39333,העצמאות/נרקיסים, רחוב:העצמאות 41 עיר: אבן יהודה רציף:   קומה:  ,32.274281,34.887190,0,,182
419,39337,כביש 4/תל צור, רחוב:4  עיר: אבן יהודה רציף:   קומה:  ,32.275284,34.895065,0,,182
420,39339,כפר נטר הצעירה, רחוב:האלון 1 עיר: כפר נטר רציף:   קומה:  ,32.281306,34.873002,0,,316
421,39340,העצמאות/רימון, רחוב:העצמאות  עיר: אבן יהודה רציף:   קומה:  ,32.281885,34.891567,0,,182
422,39341,כפר נטר הצעירה, רחוב:האלון  עיר: כפר נטר רציף:   קומה:  ,32.281741,34.872608,0,,316
424,39343,האלון/ההדרים, רחוב:האלון 7 עיר: כפר נטר רציף:   קומה:  ,32.281090,34.875041,0,,316
425,39345,האלון/ההדרים, רחוב:האלון 9 עיר: כפר נטר רציף:   קומה:  ,32.281049,34.876023,0,,316
426,39346,פארק הבנים/הבנים, רחוב:הבנים 55 עיר: אבן יהודה רציף:   קומה:  ,32.281798,34.880618,0,,182
427,39347,גן הבנים/הבנים, רחוב:הבנים 102 עיר: אבן יהודה רציף:   קומה:  ,32.282123,34.880923,0,,182
428,39348,האורזים\יוסף, רחוב:שדרות טום לנטוס 61 עיר: נתניה רציף:   קומה:  ,32.296960,34.869407,0,,7400
429,39349,טום לנטוס/ליבר זאב, רחוב:שדרות טום לנטוס  עיר: נתניה רציף:   קומה:  ,32.300914,34.869560,0,,7400
430,39350,דרך דגניה/בני וו.רייך, רחוב:דרך דגניה 90 עיר: נתניה רציף:   קומה:  ,32.295836,34.873232,0,,7400
431,39351,דרך דגניה/ליבר זאב, רחוב:דרך דגניה 76 עיר: נתניה רציף:   קומה:  ,32.299918,34.873394,0,,7400
432,39352,טום לנטוס/ד''ר יהודה פרח, רחוב:שדרות טום לנטוס 35 עיר: נתניה רציף:   קומה:  ,32.303634,34.869670,0,,7400
433,39353,טום לנטוס/פרופסור יוסף קלאוזנר, רחוב:שדרות טום לנטוס 26 עיר: נתניה רציף:   קומה:  ,32.306991,34.869578,0,,7400
435,39355,שפיגלמן/הגולן, רחוב:שפיגלמן 12 עיר: נתניה רציף:   קומה:  ,32.307611,34.872856,0,,7400
436,39356,בית עלמין, רחוב:  עיר: נתניה רציף:   קומה:  ,32.298762,34.881391,0,,7400
437,39357,דגניה\קלויזנר, רחוב:דרך דגניה 54 עיר: נתניה רציף:   קומה:  ,32.306429,34.874354,0,,7400
438,39358,דרך דגניה/פרופסור יוסף קלאוזנר, רחוב:דרך דגניה 47 עיר: נתניה רציף:   קומה:  ,32.307437,34.874793,0,,7400
440,39360,מרכז דוד/דרך דגניה, רחוב:דרך דגניה 44 עיר: נתניה רציף:   קומה:  ,32.308448,34.874746,0,,7400
441,39361,חורשת הסרג''נטים/האוניברסיטה, רחוב:האוניברסיטה  עיר: נתניה רציף:   קומה:  ,32.306781,34.877867,0,,7400
442,39362,הרטום/רות המואביה, רחוב:הרטום 22 עיר: נתניה רציף:   קומה:  ,32.308907,34.876499,0,,7400
444,39364,מכללת נתניה/החינוך העברי, רחוב:האוניברסיטה  עיר: נתניה רציף:   קומה:  ,32.306937,34.879312,0,,7400
445,39365,דרך הפארק/האוניברסיטה, רחוב:דרך הפארק  עיר: נתניה רציף:   קומה:  ,32.306208,34.880625,0,,7400
446,39366,ההשכלה/האוניברסיטה, רחוב:ההשכלה 11 עיר: נתניה רציף:   קומה:  ,32.307372,34.880983,0,,7400
447,39367,ההשכלה/האוניברסיטה, רחוב:ההשכלה 14 עיר: נתניה רציף:   קומה:  ,32.307550,34.880771,0,,7400
448,39368,ההשכלה/הרב יהודה אונטרמן, רחוב:ההשכלה 5 עיר: נתניה רציף:   קומה:  ,32.308880,34.881223,0,,7400
449,39369,ההשכלה/הרב יהודה אונטרמן, רחוב:ההשכלה 6 עיר: נתניה רציף:   קומה:  ,32.309305,34.881158,0,,7400
450,39370,הבנים/המחתרת, רחוב:הבנים 29 עיר: אבן יהודה רציף:   קומה:  ,32.280259,34.884816,0,,182
451,39371,הבנים/מרבד הקסמים, רחוב:הבנים 46 עיר: אבן יהודה רציף:   קומה:  ,32.280217,34.884985,0,,182
452,39372,הבנים/סמטת הורדים, רחוב:הבנים 7 עיר: אבן יהודה רציף:   קומה:  ,32.278278,34.888529,0,,182
453,39373,הבנים/סמטת הורדים, רחוב:הבנים 6 עיר: אבן יהודה רציף:   קומה:  ,32.278373,34.888535,0,,182
454,39374,צומת הדסים, רחוב:4  עיר: אבן יהודה רציף:   קומה:  ,32.282750,34.896439,0,,182
455,39375,צומת הדסים, רחוב:  עיר: קדימה צורן רציף:   קומה:  ,32.283196,34.897286,0,,195
456,39376,הברבור/הזמיר, רחוב:הזמיר 8 עיר: נתניה רציף:   קומה:  ,32.303990,34.882232,0,,7400
457,39377,הזמיר/השחף, רחוב:הזמיר  עיר: נתניה רציף:   קומה:  ,32.306077,34.882851,0,,7400
458,39378,הזמיר/הנשר, רחוב:הנשר 5 עיר: נתניה רציף:   קומה:  ,32.306827,34.882423,0,,7400
459,39379,דרך הלורד\אבני, רחוב:דרך הלורד  עיר: תל מונד רציף:   קומה:  ,32.248347,34.910543,0,,154
460,39380,הורדים/יונק הדבש, רחוב:הורדים 4 עיר: קדימה צורן רציף:   קומה:  ,32.267569,34.913161,0,,195
461,39381,הארז/השיזף, רחוב:הארז 4 עיר: קדימה צורן רציף:   קומה:  ,32.266731,34.913567,0,,195
462,39382,גורדון/כצנלסון, רחוב:כצנלסון 7 עיר: קדימה צורן רציף:   קומה:  ,32.272356,34.910500,0,,195
463,39383,יוספטל / מימון, רחוב:יוספטל 5 עיר: קדימה צורן רציף:   קומה:  ,32.274709,34.907678,0,,195
464,39384,יאנוש קורצ'ק/יוספטל, רחוב:יאנוש קורצ'אק 2 עיר: קדימה צורן רציף:   קומה:  ,32.275944,34.908497,0,,195
466,39386,גורדון/ברנר, רחוב:גורדון 15 עיר: קדימה צורן רציף:   קומה:  ,32.273996,34.909588,0,,195
467,39387,גורדון/יאנוש קורצ'אק, רחוב:יאנוש קורצ'אק 5 עיר: קדימה צורן רציף:   קומה:  ,32.275772,34.909654,0,,195
468,39388,שד. יצחק בן צבי/יאנוש קורצ'אק, רחוב:יאנוש קורצ'אק 26 עיר: קדימה צורן רציף:   קומה:  ,32.275743,34.910497,0,,195
469,39389,ז'בוטינסקי/ההסתדרות, רחוב:ז'בוטינסקי 8 עיר: קדימה צורן רציף:   קומה:  ,32.268747,34.912450,0,,195
470,39390,אח''י דקר/ההסתדרות, רחוב:ההסתדרות 22 עיר: קדימה צורן רציף:   קומה:  ,32.269922,34.912325,0,,195
471,39391,האלון/ההסתדרות, רחוב:ההסתדרות 15 עיר: קדימה צורן רציף:   קומה:  ,32.270195,34.912545,0,,195
472,39392,שבזי/שד. יצחק בן צבי, רחוב:שבזי 3 עיר: קדימה צורן רציף:   קומה:  ,32.272628,34.911703,0,,195
473,39393,אח''י דקר/העורב, רחוב:אח''י דקר 5 עיר: קדימה צורן רציף:   קומה:  ,32.269257,34.913385,0,,195
474,39394,מ''ג/ההסתדרות, רחוב:מ''ג 7 עיר: קדימה צורן רציף:   קומה:  ,32.271478,34.913327,0,,195
475,39395,מ''ג/אלי כהן, רחוב:מ''ג 18 עיר: קדימה צורן רציף:   קומה:  ,32.271388,34.914331,0,,195
476,39396,שבזי/סעדיה אבני, רחוב:שבזי 18 עיר: קדימה צורן רציף:   קומה:  ,32.273004,34.913138,0,,195
477,39397,שבזי/בר יהודה, רחוב:שבזי 27 עיר: קדימה צורן רציף:   קומה:  ,32.273331,34.913557,0,,195
478,39398,הדקל/הכלנית, רחוב:הדקל 21 עיר: תל מונד רציף:   קומה:  ,32.248511,34.915812,0,,154
479,39399,הדקל/הרקפת, רחוב:הדקל 34 עיר: תל מונד רציף:   קומה:  ,32.249961,34.918202,0,,154
480,39400,הדקל/הנרקיס, רחוב:הדקל 45 עיר: תל מונד רציף:   קומה:  ,32.252882,34.918311,0,,154
481,39401,הדקל/השקד, רחוב:הדקל 79 עיר: תל מונד רציף:   קומה:  ,32.256492,34.920256,0,,154
482,39402,הארז/הציפורים, רחוב:הארז 13 עיר: קדימה צורן רציף:   קומה:  ,32.266482,34.915282,0,,195
483,39403,הארז/השלדג, רחוב:הארז 20 עיר: קדימה צורן רציף:   קומה:  ,32.266374,34.915906,0,,195
484,39404,הארז/השיקמים, רחוב:הארז 27 עיר: קדימה צורן רציף:   קומה:  ,32.266808,34.917493,0,,195
485,39405,הארז/השיקמים, רחוב:הארז 36 עיר: קדימה צורן רציף:   קומה:  ,32.266815,34.917657,0,,195
486,39406,הדקל/התאנה, רחוב:הדקל 109 עיר: תל מונד רציף:   קומה:  ,32.260507,34.922334,0,,154
487,39407,כביש 562/האנפה, רחוב:562  עיר: קדימה צורן רציף:   קומה:  ,32.266682,34.919314,0,,195
488,39408,היובל/התפוז, רחוב:מ''ג 41 עיר: קדימה צורן רציף:   קומה:  ,32.271438,34.916988,0,,195
489,39409,מסגריה/מ''ג, רחוב:מ''ג 50 עיר: קדימה צורן רציף:   קומה:  ,32.271495,34.917259,0,,195
490,39410,שבזי/אלי כהן, רחוב:שבזי 52 עיר: קדימה צורן רציף:   קומה:  ,32.273390,34.915612,0,,195
491,39411,מ''ג/שבזי, רחוב:שבזי 61 עיר: קדימה צורן רציף:   קומה:  ,32.273466,34.916759,0,,195
492,39412,אזור תעשיה קדימה, רחוב:562  עיר: קדימה צורן רציף:   קומה:  ,32.271609,34.922392,0,,195
493,39413,562/שדרות הדקלים, רחוב:562  עיר: קדימה צורן רציף:   קומה:  ,32.272874,34.922788,0,,195
494,39414,צומת עין ורד, רחוב:553  עיר: עין ורד רציף:   קומה:  ,32.261017,34.929346,0,,157
495,39415,הרצל/האירוסים, רחוב:הרצל  עיר: קדימה צורן רציף:   קומה:  ,32.283332,34.905008,0,,195
496,39416,הרצל/תדהר, רחוב:הרצל 47 עיר: קדימה צורן רציף:   קומה:  ,32.282917,34.906375,0,,195
497,39417,הרצל/מורדי הגטאות, רחוב:הרצל 29 עיר: קדימה צורן רציף:   קומה:  ,32.282382,34.908295,0,,195
498,39418,הרצל/מורדי הגטאות, רחוב:הרצל 40 עיר: קדימה צורן רציף:   קומה:  ,32.282650,34.907671,0,,195
499,39419,שד. יצחק בן צבי/הנרייטה סולד, רחוב:שדרות יצחק בן צבי 47 עיר: קדימה צורן רציף:   קומה:  ,32.277405,34.911251,0,,195
501,39421,בן צבי\אחד העם, רחוב:שדרות יצחק בן צבי 14 עיר: קדימה צורן רציף:   קומה:  ,32.280609,34.911217,0,,195
502,39422,מועצה, רחוב:שדרות יצחק בן צבי 9 עיר: קדימה צורן רציף:   קומה:  ,32.280963,34.911613,0,,195
503,39423,כיכר אורט, רחוב:האר''י  עיר: נתניה רציף:   קומה:  ,32.312364,34.871873,0,,7400
504,39424,שפיגלמן/הרטום, רחוב:שפיגלמן 4 עיר: נתניה רציף:   קומה:  ,32.309694,34.873201,0,,7400
505,39425,בי''ס אורט, רחוב:דוד פנקס 40 עיר: נתניה רציף:   קומה:  ,32.316490,34.873759,0,,7400
506,39426,ת. רכבת נתניה, רחוב:  עיר: נתניה רציף:   קומה:  ,32.320018,34.868889,0,,7400
507,39427,האורזים/העמל, רחוב:האורזים 10 עיר: נתניה רציף:   קומה:  ,32.319428,34.871759,0,,7400
508,39428,קניון הדרים, רחוב:האורזים 2 עיר: נתניה רציף:   קומה:  ,32.322865,34.872007,0,,7400
509,39429,דרך דגניה/הרב יהודה אונטרמן, רחוב:דרך דגניה  עיר: נתניה רציף:   קומה:  ,32.310540,34.875589,0,,7400
510,39430,מרכז מסחרי/האר''י, רחוב:האר''י  עיר: נתניה רציף:   קומה:  ,32.312108,34.870772,0,,7400
511,39431,אסתר המלכה/הרב יהודה אונטרמן, רחוב:הרב יהודה אונטרמן 20 עיר: נתניה רציף:   קומה:  ,32.310451,34.877692,0,,7400
512,39432,דוד פנקס/הרכב, רחוב:הרכב 12 עיר: נתניה רציף:   קומה:  ,32.315360,34.874470,0,,7400
513,39433,הנגר/הפלדה, רחוב:הפלדה 26 עיר: נתניה רציף:   קומה:  ,32.316600,34.877512,0,,7400
514,39434,בית חרושת טריוול, רחוב:הפלדה  עיר: נתניה רציף:   קומה:  ,32.315536,34.877502,0,,7400
516,39436,הרב צירלסון/השומר, רחוב:הרב צירלסון 2 עיר: נתניה רציף:   קומה:  ,32.310402,34.882047,0,,7400
519,39439,דוד פנקס/צבי שכטרמן, רחוב:דוד פנקס 20 עיר: נתניה רציף:   קומה:  ,32.319623,34.874105,0,,7400
520,39440,דוד פנקס/צבי שכטרמן, רחוב:צבי שכטרמן 8 עיר: נתניה רציף:   קומה:  ,32.320168,34.874932,0,,7400
521,39441,האורג/הפלדה, רחוב:הפלדה 14 עיר: נתניה רציף:   קומה:  ,32.318671,34.877748,0,,7400
522,39443,פנקס/הקדר, רחוב:דוד פנקס  עיר: נתניה רציף:   קומה:  ,32.323412,34.874522,0,,7400
523,39444,צבי שכטרמן/הפלדה, רחוב:צבי שכטרמן 21 עיר: נתניה רציף:   קומה:  ,32.320071,34.877451,0,,7400
524,39445,צבי שכטרמן/הפלדה, רחוב:צבי שכטרמן  עיר: נתניה רציף:   קומה:  ,32.319904,34.878282,0,,7400
525,39446,דרך דגניה/צבי שכטרמן, רחוב:צבי שכטרמן 32 עיר: נתניה רציף:   קומה:  ,32.319668,34.881371,0,,7400
526,39447,דרך דגניה/צבי שכטרמן, רחוב:צבי שכטרמן 29 עיר: נתניה רציף:   קומה:  ,32.319773,34.881173,0,,7400
527,39448,יוספטל/גליקסון, רחוב:משה גליקסון 22 עיר: נתניה רציף:   קומה:  ,32.329332,34.867008,0,,7400
528,39449,משה גליקסון/שמעון פרוג, רחוב:משה גליקסון 30 עיר: נתניה רציף:   קומה:  ,32.330186,34.868109,0,,7400
529,39450,דוד פרישמן/משה גליקסון, רחוב:משה גליקסון 38 עיר: נתניה רציף:   קומה:  ,32.331295,34.868460,0,,7400
531,39452,אלקלעי/ברק בן אבינועם, רחוב:אלקלעי 9 עיר: נתניה רציף:   קומה:  ,32.332927,34.870773,0,,7400
532,39453,עמק חפר/אליהו גולומב, רחוב:עמק חפר 8 עיר: נתניה רציף:   קומה:  ,32.337811,34.866372,0,,7400
533,39454,דב הוז\ריינס, רחוב:דב הוז  עיר: נתניה רציף:   קומה:  ,32.336824,34.866861,0,,7400
534,39455,נחום סוקולוב/עמק חפר, רחוב:עמק חפר 42 עיר: נתניה רציף:   קומה:  ,32.340773,34.867708,0,,7400
535,39456,עמק חפר מזאה, רחוב:עמק חפר 57 עיר: נתניה רציף:   קומה:  ,32.342533,34.868426,0,,7400
536,39457,פרופסור אלברט איינשטיין/צ.פ. חיות, רחוב:פרופסור אלברט איינשטיין  עיר: נתניה רציף:   קומה:  ,32.340813,34.868963,0,,7400
537,39458,פרופסור אלברט איינשטיין/מרטין בובר, רחוב:פרופסור אלברט איינשטיין  עיר: נתניה רציף:   קומה:  ,32.340915,34.869265,0,,7400
538,39459,דב הוז\שפינוזה, רחוב:דב הוז 29 עיר: נתניה רציף:   קומה:  ,32.336087,34.870035,0,,7400
539,39460,אלקלעי/יפתח הגלעדי, רחוב:אלקלעי 27 עיר: נתניה רציף:   קומה:  ,32.335269,34.871719,0,,7400
540,39461,פרופסור אלברט איינשטיין/פרופסור שור, רחוב:פרופסור אלברט איינשטיין 18 עיר: נתניה רציף:   קומה:  ,32.340337,34.870557,0,,7400
541,39462,פרופסור אלברט איינשטיין/פרופסור שור, רחוב:פרופסור אלברט איינשטיין  עיר: נתניה רציף:   קומה:  ,32.340578,34.870525,0,,7400
542,39463,בית ספר ש''י עגנון/שמעון בר יוח, רחוב:ברוך שפינוזה  עיר: נתניה רציף:   קומה:  ,32.341126,34.871870,0,,7400
543,39464,יוסף שפרינצק/מיכאל הלפרין, רחוב:יוסף שפרינצק 36 עיר: נתניה רציף:   קומה:  ,32.313726,34.883756,0,,7400
544,39465,הרב ז. גולד/הרב צירלסון, רחוב:הרב צירלסון 20 עיר: נתניה רציף:   קומה:  ,32.309741,34.884436,0,,7400
545,39466,הרב גד מכלוף/שמואל לנדאו, רחוב:שמואל לנדאו 13 עיר: נתניה רציף:   קומה:  ,32.311642,34.884744,0,,7400
546,39467,יוסף שפרינצק/הרב הגר, רחוב:יוסף שפרינצק 31 עיר: נתניה רציף:   קומה:  ,32.313727,34.883995,0,,7400
547,39468,דגניה\קפלן, רחוב:דרך דגניה  עיר: נתניה רציף:   קומה:  ,32.317779,34.882235,0,,7400
548,39469,יוסף שפרינצק/יוסף ויתקין, רחוב:יוסף שפרינצק  עיר: נתניה רציף:   קומה:  ,32.315409,34.886138,0,,7400
549,39470,יוסף שפרינצק/עובדיה אברהם הכהן, רחוב:יוסף שפרינצק  עיר: נתניה רציף:   קומה:  ,32.315803,34.886283,0,,7400
550,39471,שפרינצק/שרה מלכין, רחוב:יוסף שפרינצק 12 עיר: נתניה רציף:   קומה:  ,32.317420,34.887003,0,,7400
551,39472,יוסף שפרינצק/הרב מנחם זמבה, רחוב:יוסף שפרינצק 9 עיר: נתניה רציף:   קומה:  ,32.317675,34.887210,0,,7400
552,39473,'אליעזר קפלן/יוסף אהרונוביץ, רחוב:אליעזר קפלן 5 עיר: נתניה רציף:   קומה:  ,32.320154,34.884427,0,,7400
553,39475,אליעזר קפלן/יוסף שפרינצק, רחוב:אליעזר קפלן 23 עיר: נתניה רציף:   קומה:  ,32.319832,34.887322,0,,7400
554,39476,יוסף שפרינצק/משה מונטיפיורי, רחוב:יוסף שפרינצק  עיר: נתניה רציף:   קומה:  ,32.319394,34.887527,0,,7400
555,39477,עמק חפר\מזאה, רחוב:עמק חפר 56 עיר: נתניה רציף:   קומה:  ,32.342214,34.868404,0,,7400
559,39481,הגדוד העברי/ההגנה, רחוב:הגדוד העברי 10 עיר: אביחיל רציף:   קומה:  ,32.349048,34.870049,0,,175
560,39482,מרפאה, רחוב:הגדוד העברי 18 עיר: אביחיל רציף:   קומה:  ,32.350595,34.871017,0,,175
561,39483,מרפאה, רחוב:הגדוד העברי 37 עיר: אביחיל רציף:   קומה:  ,32.350660,34.870939,0,,175
562,39484,הגדוד העברי/השומר, רחוב:הגדוד העברי 26 עיר: אביחיל רציף:   קומה:  ,32.352255,34.873187,0,,175
563,39485,הגדוד העברי/השומר, רחוב:הגדוד העברי 51 עיר: אביחיל רציף:   קומה:  ,32.352276,34.873078,0,,175
564,39486,הגדוד העברי/הבנים, רחוב:  עיר: אביחיל רציף:   קומה:  ,32.355595,34.872864,0,,175
565,39487,צרכניה, רחוב:הראשונים  עיר: עין ורד רציף:   קומה:  ,32.265625,34.932930,0,,157
566,39488,קופת חולים, רחוב:הראשונים  עיר: עין ורד רציף:   קומה:  ,32.267751,34.935106,0,,157
567,39489,ברבור/עגור, רחוב:עגור 6 עיר: עין שריד רציף:   קומה:  ,32.272156,34.935163,0,,880
568,39490,מזכירות, רחוב:עגור 21 עיר: עין שריד רציף:   קומה:  ,32.275122,34.935257,0,,880
569,39492,כביש 562/האילנות, רחוב:562  עיר: קדימה צורן רציף:   קומה:  ,32.287707,34.938261,0,,195
570,39493,ההדרים צורן/השיקמה צורן, רחוב:השיקמה 6 עיר: קדימה צורן רציף:   קומה:  ,32.288623,34.938918,0,,195
571,39494,ההדרים צורן/האילן צורן, רחוב:ההדרים 15 עיר: קדימה צורן רציף:   קומה:  ,32.289149,34.940214,0,,195
572,39495,דרך לב השרון/הגפן, רחוב:דרך לב השרון 32 עיר: קדימה צורן רציף:   קומה:  ,32.287617,34.943406,0,,195
573,39496,האילנות/הדולב, רחוב:הדולב 20 עיר: קדימה צורן רציף:   קומה:  ,32.286661,34.945478,0,,195
574,39497,ההדרים צורן/הגפן צורן, רחוב:ההדרים 69 עיר: קדימה צורן רציף:   קומה:  ,32.289157,34.944333,0,,195
575,39498,דרך לב השרון/הזית, רחוב:הזית  עיר: קדימה צורן רציף:   קומה:  ,32.287382,34.948901,0,,195
576,39499,ההדרים צורן/ההדס צורן, רחוב:ההדרים 107 עיר: קדימה צורן רציף:   קומה:  ,32.289142,34.947722,0,,195
577,39500,ההדרים/החרוב, רחוב:החרוב 13 עיר: קדימה צורן רציף:   קומה:  ,32.289036,34.950515,0,,195
578,39501,חבצלת החוף/אירוס הארגמן, רחוב:חבצלת החוף  עיר: נתניה רציף:   קומה:  ,32.284172,34.845651,0,,7400
579,39502,הגדוד העברי/ההגנה, רחוב:הגדוד העברי 27 עיר: אביחיל רציף:   קומה:  ,32.349003,34.869922,0,,175
580,39503,מלון כרמל/שדרות בן גוריון, רחוב:שדרות עובד בן עמי 21 עיר: נתניה רציף:   קומה:  ,32.316181,34.846282,0,,7400
581,39504,ד''ר סטופ/הנרייטה סולד, רחוב:ד''ר סטופ 5 עיר: נתניה רציף:   קומה:  ,32.296697,34.850917,0,,7400
582,39505,מוצקין/כהן מגורי, רחוב:אריה מוצקין 22 עיר: נתניה רציף:   קומה:  ,32.298015,34.849249,0,,7400
583,39506,לוי אשכול/שמחה ארליך, רחוב:שמחה ארליך  עיר: נתניה רציף:   קומה:  ,32.299539,34.849183,0,,7400
584,39507,בן עמי\קניג, רחוב:שדרות עובד בן עמי 53 עיר: נתניה רציף:   קומה:  ,32.310089,34.844868,0,,7400
585,39508,פתח תקווה/לילינבלום, רחוב:לילינבלום 26 עיר: נתניה רציף:   קומה:  ,32.324783,34.860237,0,,7400
586,39509,המחשב/הצורן, רחוב:הצורן  עיר: נתניה רציף:   קומה:  ,32.287413,34.865430,0,,7400
587,39510,אורט/הפלדה, רחוב:הפלדה 23 עיר: נתניה רציף:   קומה:  ,32.316573,34.877615,0,,7400
588,39511,האורג/הפלדה, רחוב:הפלדה 11 עיר: נתניה רציף:   קומה:  ,32.318663,34.877854,0,,7400
589,39512,בית ספר אורט/פנקס, רחוב:דוד פנקס 43 עיר: נתניה רציף:   קומה:  ,32.316808,34.874020,0,,7400
590,39513,דוד פנקס/צבי שכטרמן, רחוב:דוד פנקס 19 עיר: נתניה רציף:   קומה:  ,32.320682,34.874438,0,,7400
591,39514,הגביש/המחקר, רחוב:הגביש 10 עיר: נתניה רציף:   קומה:  ,32.289026,34.863707,0,,7400
592,39515,פנחס לבון/גולדה מאיר, רחוב:שדרות פנחס לבון  עיר: נתניה רציף:   קומה:  ,32.278777,34.851223,0,,7400
593,39516,מרכז מסחרי/שדרות גיבורי ישראל, רחוב:שדרות גיבורי ישראל 1 עיר: נתניה רציף:   קומה:  ,32.273967,34.858725,0,,7400
596,39519,האילנות/הדולב, רחוב:האילנות 96 עיר: קדימה צורן רציף:   קומה:  ,32.286174,34.945903,0,,195
597,39520,האילנות/הזית, רחוב:האילנות 116 עיר: קדימה צורן רציף:   קומה:  ,32.286178,34.948387,0,,195
598,39521,דרך לב השרון/האילן, רחוב:דרך לב השרון 2 עיר: קדימה צורן רציף:   קומה:  ,32.287606,34.939667,0,,195
599,39522,ת. מרכזית נתניה/הורדה, רחוב:פינסקר  עיר: נתניה רציף:   קומה:  ,32.327128,34.858390,0,,7400
600,39523,ת. מרכזית נתניה, רחוב:צבי אלון 5 עיר: נתניה רציף:   קומה:  ,32.326600,34.858649,0,,7400
601,39524,צומת נווה איתמר, רחוב:דרך הירדן  עיר: נתניה רציף:   קומה:  ,32.324396,34.874173,0,,7400
602,39525,קלאוזנר/דרך דגניה, רחוב:האוניברסיטה 9 עיר: נתניה רציף:   קומה:  ,32.306969,34.875881,0,,7400
603,39526,שדרות הפארק/הזמיר, רחוב:דרך הפארק 11 עיר: נתניה רציף:   קומה:  ,32.304425,34.880617,0,,7400
604,39527,דרך דגניה/ליבר זאב, רחוב:דרך דגניה 61 עיר: נתניה רציף:   קומה:  ,32.300796,34.873828,0,,7400
605,39528,דרך דגניה/הרב שלום איפרגן, רחוב:דרך דגניה 77 עיר: נתניה רציף:   קומה:  ,32.298309,34.873578,0,,7400
606,39529,הרימון/השיקמה, רחוב:השיקמה 8 עיר: נתניה רציף:   קומה:  ,32.352174,34.865703,0,,7400
608,39531,מסעף שער אברהם, רחוב:3  עיר: נחל שורק רציף:   קומה:  ,31.761736,34.791111,0,,13575
610,39533,הנשר/הזמיר, רחוב:הנשר 6 עיר: נתניה רציף:   קומה:  ,32.306709,34.881398,0,,7400
611,39534,האורזים/צבי שכטרמן, רחוב:האורזים  עיר: נתניה רציף:   קומה:  ,32.321122,34.871836,0,,7400
613,39536,מחלף נשרים, רחוב:44  עיר: גזר רציף:   קומה:  ,31.901922,34.888167,0,,12831
615,39538,דרך דגניה/הרב יהודה אונטרמן, רחוב:הרב עובדיה יוסף  עיר: נתניה רציף:   קומה:  ,32.311213,34.875590,0,,7400
616,39539,האורזים/אורט, רחוב:האורזים  עיר: נתניה רציף:   קומה:  ,32.316546,34.871605,0,,7400
617,39540,בני וו. רייך/אדר, רחוב:בני וו. רייך  עיר: נתניה רציף:   קומה:  ,32.295110,34.871827,0,,7400
618,39541,בני וו. רייך/אדר, רחוב:בני וו. רייך  עיר: נתניה רציף:   קומה:  ,32.294900,34.871619,0,,7400
620,39543,חשמונאים/רבין, רחוב:שדרות החשמונאים  עיר: מודיעין מכבים רעות רציף:   קומה:  ,31.893200,35.000890,0,,1200
621,39544,מכללת הרמלין/המחקר, רחוב:המחקר 1 עיר: נתניה רציף:   קומה:  ,32.291133,34.864850,0,,7400
622,39545,בית ספר ש''י עגנון/שמעון בר יוח, רחוב:ברוך שפינוזה  עיר: נתניה רציף:   קומה:  ,32.341095,34.871753,0,,7400
624,39547,אלונים/דרך דגניה, רחוב:אלונים 4 עיר: נתניה רציף:   קומה:  ,32.303112,34.875189,0,,7400
628,39553,שמואל הנציב/י.ח.ברנר, רחוב:שמואל הנציב 58 עיר: נתניה רציף:   קומה:  ,32.334494,34.856713,0,,7400
631,39556,אלונים/הנופר, רחוב:אלונים  עיר: נתניה רציף:   קומה:  ,32.302853,34.877189,0,,7400
632,39557,מודיעים/חיטה, רחוב:מודיעים 29 עיר: שוהם רציף:   קומה:  ,31.989298,34.943080,0,,1304
633,39558,כלנית/יסמין, רחוב:הכלנית 24 עיר: בית דגן רציף:   קומה:  ,31.996307,34.828531,0,,466
634,39559,טום לנטוס/תשרי, רחוב:שדרות טום לנטוס  עיר: נתניה רציף:   קומה:  ,32.296268,34.869149,0,,7400
636,39561,גשר השלום/הגביש, רחוב:הארי טרומן  עיר: נתניה רציף:   קומה:  ,32.286630,34.862025,0,,7400
637,39563,יוסף שפרינצק/אברהם מרק, רחוב:יוסף שפרינצק 24 עיר: נתניה רציף:   קומה:  ,32.314635,34.885249,0,,7400
639,39566,הרימון/התמר, רחוב:הרימון 27 עיר: נתניה רציף:   קומה:  ,32.352440,34.864109,0,,7400
641,39568,רזיאל/א.ס. לוי, רחוב:שדרות דוד רזיאל  עיר: רמלה רציף:   קומה:  ,31.921328,34.861894,0,,8500
642,39569,אנילביץ/שלמה המלך, רחוב:אנילביץ' 2 עיר: ראשון לציון רציף:   קומה:  ,31.980533,34.789306,0,,8300
647,39574,אלונים/הנופר, רחוב:אלונים 10 עיר: נתניה רציף:   קומה:  ,32.302928,34.876757,0,,7400
651,39578,חניון שפירים, רחוב:  עיר: עמק לוד רציף:   קומה:  ,32.001060,34.843829,0,,1893
652,39579,הגלעד/הרטום, רחוב:הרטום 33 עיר: נתניה רציף:   קומה:  ,32.310431,34.872766,0,,7400
654,39581,גוש עציון/הציונות, רחוב:גוש עציון 8 עיר: גבעת שמואל רציף:   קומה:  ,32.079440,34.845783,0,,681
655,39582,בית תרבות, רחוב:בראשית 46 עיר: אומץ רציף:   קומה:  ,32.369780,34.993100,0,,680
656,39583,'גן יאשיה ד, רחוב:שדרת האקליפטוס  עיר: גן יאשיה רציף:   קומה:  ,32.349946,34.995665,0,,734
657,39584,צומת חרב לאת, רחוב:הדקל 1 עיר: חרב לאת רציף:   קומה:  ,32.401246,34.914846,0,,422
658,39585,הראשונים/אודים, רחוב:הראשונים 22 עיר: חיבת ציון רציף:   קומה:  ,32.397570,34.912597,0,,219
659,39586,הזיתים/הרימון, רחוב:הזיתים  עיר: גבעת שמואל רציף:   קומה:  ,32.081942,34.852100,0,,681
660,39587,אליעזר קפלן/יוסף שפרינצק, רחוב:יוסף שפרינצק  עיר: נתניה רציף:   קומה:  ,32.319289,34.887613,0,,7400
661,39588,ש''י עגנון/שדרות פנחס לבון, רחוב:שדרות פנחס לבון  עיר: נתניה רציף:   קומה:  ,32.280117,34.852301,0,,7400
662,39589,הרצוג/עובדיה מברטנורא, רחוב:הרב הרצוג 23 עיר: נתניה רציף:   קומה:  ,32.342204,34.859563,0,,7400
663,39590,רבן יוחנן בן זכאי/שמעיה, רחוב:רבן יוחנן בן זכאי 5 עיר: אלעד רציף:   קומה:  ,32.050985,34.948886,0,,1309
664,39591,גבעת חיים איחוד, רחוב:  עיר: גבעת חיים איחוד רציף:   קומה:  ,32.396046,34.933495,0,,2018
666,39593,'חרב לאת ג, רחוב:הדקל 37 עיר: חרב לאת רציף:   קומה:  ,32.400645,34.920183,0,,422
667,39594,'מעפיל א, רחוב:  עיר: המעפיל רציף:   קומה:  ,32.377770,34.984523,0,,377
669,39596,צומת אליכין, רחוב:5812  עיר: עמק חפר רציף:   קומה:  ,32.397341,34.925936,0,,12433
670,39597,הגפן/הרש''ש, רחוב:הרש''ש 8 עיר: אליכין רציף:   קומה:  ,32.405742,34.925184,0,,41
671,39598,הרש''ש/כנפי הנשרים, רחוב:הרש''ש 28 עיר: אליכין רציף:   קומה:  ,32.405310,34.926835,0,,41
672,39599,חבצלת השרון/שקד, רחוב:חבצלת השרון 22 עיר: אליכין רציף:   קומה:  ,32.409240,34.930145,0,,41
673,39600,הגפן/התמר, רחוב:הגפן 33 עיר: אליכין רציף:   קומה:  ,32.406580,34.922061,0,,41
674,39601,חבצלת השרון/היסמין, רחוב:חבצלת השרון 90 עיר: אליכין רציף:   קומה:  ,32.410332,34.924034,0,,41
675,39602,חבצלת השרון/כנפי הנשרים, רחוב:חבצלת השרון 38 עיר: אליכין רציף:   קומה:  ,32.409683,34.928104,0,,41
676,39603,הרש''ש/הסביון, רחוב:הרש''ש 108 עיר: אליכין רציף:   קומה:  ,32.408402,34.931491,0,,41
677,39604,הרש''ש/מרבד הקסמים, רחוב:הרש''ש 54 עיר: אליכין רציף:   קומה:  ,32.405734,34.929781,0,,41
678,39605,כניסה לטבעת צפון, רחוב:  עיר: טייבה רציף:   קומה:  ,32.275998,35.005462,0,,2730
679,39606,מחלף שפיים, רחוב:  עיר: שפיים רציף:   קומה:  ,32.215735,34.827759,0,,232
680,39607,מסעף שפיים, רחוב:  עיר: חוף השרון רציף:   קומה:  ,32.217250,34.828473,0,,1905
681,39608,שפיים, רחוב:  עיר: חוף השרון רציף:   קומה:  ,32.219872,34.829093,0,,1905
682,39609,שפיים, רחוב:  עיר: חוף השרון רציף:   קומה:  ,32.222275,34.829808,0,,1905
684,39611,דרך הארז/דרך ההדס, רחוב:דרך הארז  עיר: בורגתה רציף:   קומה:  ,32.319569,34.964440,0,,698
685,39612,דרך ההדס/סמטת הדקל, רחוב:דרך הדקל  עיר: בורגתה רציף:   קומה:  ,32.326894,34.962120,0,,698
687,39614,הראשונים/החורב, רחוב:הראשונים  עיר: חניאל רציף:   קומה:  ,32.332589,34.951736,0,,807
688,39615,הראשונים/סמטת הדקל, רחוב:דרך הדקל  עיר: בורגתה רציף:   קומה:  ,32.328484,34.958212,0,,698
689,39616,דרך הארץ/סמטת הברוש, רחוב:דרך הארז  עיר: בורגתה רציף:   קומה:  ,32.323142,34.964238,0,,698
690,39617,החורב/הראשונים, רחוב:  עיר: חניאל רציף:   קומה:  ,32.329279,34.947523,0,,807
691,39618,הגפן/שד. הזיתים, רחוב:שדרות הזיתים  עיר: שער אפרים רציף:   קומה:  ,32.289251,34.998483,0,,661
694,39621,מרכז חינוכי, רחוב:  עיר: עין החורש רציף:   קומה:  ,32.388796,34.941918,0,,167
695,39622,זמיר/עגור, רחוב:  עיר: עין שריד רציף:   קומה:  ,32.274848,34.935020,0,,880
698,39625,צומת שער אפרים, רחוב:444  עיר: טייבה רציף:   קומה:  ,32.279165,35.005422,0,,12732
699,39626,הזיתים/הרימון, רחוב:הזיתים  עיר: גבעת שמואל רציף:   קומה:  ,32.082160,34.852286,0,,681
700,39627,שד. בן גוריון/זלמן שניאור, רחוב:שדרות בן גוריון  עיר: נתניה רציף:   קומה:  ,32.281706,34.846606,0,,7400
701,39628,ת. מרכזית פ''ת, רחוב:זאב אורלוב 59 עיר: פתח תקווה רציף:   קומה:  ,32.094807,34.886466,0,,7900
702,39629,ביה''ח תל השומר-מנהלה, רחוב:  עיר: רמת גן רציף:   קומה:  ,32.047823,34.845098,0,,8600
703,39630,צאנז /המלכים, רחוב:המלכים  עיר: נתניה רציף:   קומה:  ,32.344297,34.853973,0,,7400
704,39631,הארז/כליל החורש, רחוב:הארז 39 עיר: קדימה צורן רציף:   קומה:  ,32.268648,34.918849,0,,195
707,39634,דור אלון/נען מערב, רחוב:  עיר: גזר רציף:   קומה:  ,31.881585,34.878528,0,,14050
708,39635,הרב הרצוג/שד. ניצה, רחוב:הרב הרצוג 1 עיר: נתניה רציף:   קומה:  ,32.342351,34.853866,0,,7400
709,39637,עמק חפר/טרומפלדור, רחוב:עמק חפר 35 עיר: נתניה רציף:   קומה:  ,32.340502,34.867379,0,,7400
714,39645,פנחס לבון/גולדה מאיר, רחוב:שדרות פנחס לבון  עיר: נתניה רציף:   קומה:  ,32.278938,34.851073,0,,7400
715,39647,העצמאות/הפטל, רחוב:העצמאות  עיר: אבן יהודה רציף:   קומה:  ,32.278646,34.889571,0,,182
717,39650,בית ספר רמב''ם/הרב שלום שבזי, רחוב:הרב שלום שבזי 87 עיר: ראש העין רציף:   קומה:  ,32.090316,34.948804,0,,2640
718,39651,הורדים/התפוח, רחוב:הורדים 49 עיר: קדימה צורן רציף:   קומה:  ,32.270777,34.918803,0,,195
719,39652,'כפר נטר ג, רחוב:ההדרים 40 עיר: כפר נטר רציף:   קומה:  ,32.270211,34.869026,0,,316
720,39653,הארז/כליל החורש, רחוב:הארז 41 עיר: קדימה צורן רציף:   קומה:  ,32.268810,34.918887,0,,195
722,39655,הורדים/השקד, רחוב:הורדים 49 עיר: קדימה צורן רציף:   קומה:  ,32.270842,34.918722,0,,195
723,39656,שד. הדקלים/הורדים, רחוב:שדרות הדקלים  עיר: קדימה צורן רציף:   קומה:  ,32.273278,34.920039,0,,195
724,39657,בלפור/קמיל הויסמנס, רחוב:קמיל הויסמנס 29 עיר: נתניה רציף:   קומה:  ,32.344502,34.862316,0,,7400
725,39658,עובדיה בן שלום/שלום שבזי, רחוב:עובדיה בן שלום 23 עיר: נתניה רציף:   קומה:  ,32.313639,34.856113,0,,7400
726,39659,פתח תקווה/ד''ר מרדכי שריבר, רחוב:פתח תקווה 28 עיר: נתניה רציף:   קומה:  ,32.323036,34.860023,0,,7400
727,39660,פארק סיבל/יציאה מכביש 5, רחוב:יציאה מכביש 5 לראש העין  עיר: ראש העין רציף:   קומה:  ,32.106223,34.961328,0,,2640
728,39661,מחלף ראש העין מזרח, רחוב:  עיר: ראש העין רציף:   קומה:  ,32.107130,34.961846,0,,2640
729,39662,מחלף ראש העין מזרח, רחוב:יציאה למחלף ראש העין מזרח  עיר: ראש העין רציף:   קומה:  ,32.107588,34.962060,0,,10687
732,39669,קיבוץ גלויות/נחל רבה, רחוב:קיבוץ גלויות  עיר: ראש העין רציף:   קומה:  ,32.100293,34.969423,0,,2640
733,39670,קיבוץ גלויות/דרך בגין, רחוב:קיבוץ גלויות  עיר: ראש העין רציף:   קומה:  ,32.096940,34.970545,0,,2640
735,39672,צרכניה, רחוב:מעלה האשלים  עיר: מכמורת רציף:   קומה:  ,32.404859,34.871657,0,,382
736,39673,מעלה האשלים/דרך החוף, רחוב:מעלה האשלים 4 עיר: מכמורת רציף:   קומה:  ,32.404446,34.870048,0,,382
737,39675,חבצלת החוף/שד. בן גוריון, רחוב:שדרות בן גוריון  עיר: נתניה רציף:   קומה:  ,32.283045,34.845489,0,,7400
738,39676,אלונים/המורן, רחוב:אלונים 22 עיר: נתניה רציף:   קומה:  ,32.302364,34.879437,0,,7400
740,39681,דרך הפארק/אלונים, רחוב:דרך הפארק  עיר: נתניה רציף:   קומה:  ,32.303350,34.880315,0,,7400
741,39684,מחלף ירקון, רחוב:40  עיר: פתח תקווה רציף:   קומה:  ,32.119907,34.903229,0,,7900
742,39685,מחלף ירקון, רחוב:יציאה לכביש 5  עיר: פתח תקווה רציף:   קומה:  ,32.120708,34.904655,0,,7900
743,39686,מחלף ירקון, רחוב:40  עיר: פתח תקווה רציף:   קומה:  ,32.122810,34.903897,0,,7900
745,39690,וייצמן/סוקולוב, רחוב:וייצמן 66 עיר: כפר סבא רציף:   קומה:  ,32.176261,34.903576,0,,6900
747,39699,וייצמן/נורדאו, רחוב:וייצמן 186 עיר: כפר סבא רציף:   קומה:  ,32.172781,34.918988,0,,6900
748,39705,מחלף קסם, רחוב:יציאה לכביש 5  עיר: דרום השרון רציף:   קומה:  ,32.119485,34.938341,0,,1882
750,39707,צומת רכבת ראש העין צפון, רחוב:444  עיר: דרום השרון רציף:   קומה:  ,32.123156,34.937430,0,,1882
751,39709,מחלף קסם, רחוב:יציאה לכביש 5  עיר: ראש העין רציף:   קומה:  ,32.114882,34.941641,0,,2640
752,39711,פארק תעשיות, רחוב:מאיר אריאל 4 עיר: נתניה רציף:   קומה:  ,32.284876,34.872539,0,,7400
754,39714,האגוז/הדגנית, רחוב:האגוז 22 עיר: אורנית רציף:   קומה:  ,32.125430,34.987584,0,,3760
755,39715,האגוז/האתרוג, רחוב:האגוז 3 עיר: אורנית רציף:   קומה:  ,32.127341,34.986763,0,,3760
756,39716,האלון/היקינטון, רחוב:האלון 32 עיר: אורנית רציף:   קומה:  ,32.131553,34.987615,0,,3760
757,39717,צומת כפר סבא מזרח, רחוב:55  עיר: דרום השרון רציף:   קומה:  ,32.176573,34.938396,0,,12623
758,39718,ת. רכבת נתניה, רחוב:דרך הרכבת  עיר: נתניה רציף:   קומה:  ,32.319937,34.868027,0,,7400
759,39719,מסוף וולפסון, רחוב:  עיר: תל אביב יפו רציף:   קומה:  ,32.037359,34.762030,1,,5000
761,39721,מתחם ג'י/ילדי טהרן, רחוב:ילדי טהרן  עיר: ראשון לציון רציף:   קומה:  ,31.985269,34.769308,0,,8300
762,39722,רבוצקי/אלעזר, רחוב:רבוצקי 74 עיר: רעננה רציף:   קומה:  ,32.184212,34.886282,0,,8700
763,39723,רבוצקי/האלה, רחוב:רבוצקי 83 עיר: רעננה רציף:   קומה:  ,32.188321,34.887123,0,,8700
765,39725,מרכז לקשיש/ההגנה, רחוב:ההגנה 114 עיר: רעננה רציף:   קומה:  ,32.188954,34.868116,0,,8700
766,39726,פרדס משותף/הרצל, רחוב:פרדס משותף 59 עיר: רעננה רציף:   קומה:  ,32.175277,34.866500,0,,8700
767,39730,העצמאות/העלייה, רחוב:העצמאות 15 עיר: כפר יונה רציף:   קומה:  ,32.321123,34.927404,0,,168
768,39732,צומת קלנסאווה, רחוב:5614  עיר: קלנסווה רציף:   קומה:  ,32.288955,34.985955,0,,12565
769,39733,צומת קלנסאווה, רחוב:5614  עיר: קלנסווה רציף:   קומה:  ,32.290139,34.985113,0,,12566
770,39734,מעבר אייל, רחוב:  עיר: דרום השרון רציף:   קומה:  ,32.200803,34.971140,0,,1882
771,39735,מעבר אייל, רחוב:  עיר: דרום השרון רציף:   קומה:  ,32.201009,34.971326,0,,1882
772,39736,שדרות העצמאות/רוטשילד, רחוב:שדרות העצמאות 61 עיר: בת ים רציף:   קומה:  ,32.026569,34.748079,0,,6200
773,39737,דוד אלעזר/קרן היסוד, רחוב:דוד אלעזר 44 עיר: חולון רציף:   קומה:  ,32.007736,34.784654,0,,6600
774,39738,צומת חניאל, רחוב:העצמאות  עיר: כפר יונה רציף:   קומה:  ,32.319798,34.940003,0,,168
775,39739,ההסתדרות/שנקר, רחוב:ההסתדרות 54 עיר: חולון רציף:   קומה:  ,32.017521,34.774012,0,,6600
777,39741,צומת ינוב, רחוב:57  עיר: לב השרון רציף:   קומה:  ,32.314705,34.958084,0,,12544
778,39742,צומת תנובות, רחוב:57  עיר: עמק חפר רציף:   קומה:  ,32.314170,34.963918,0,,12543
779,39743,האיכרים/המצודה, רחוב:האיכרים 12 עיר: אזור רציף:   קומה:  ,32.028945,34.799932,0,,565
780,39744,צומת בארותיים, רחוב:5614  עיר: לב השרון רציף:   קומה:  ,32.311386,34.984668,0,,12558
781,39745,משה שרת/הרצוג, רחוב:משה שרת 28 עיר: אזור רציף:   קומה:  ,32.028410,34.802439,0,,565
783,39747,המנור/הרוקמים, רחוב:המנור 11 עיר: חולון רציף:   קומה:  ,32.006293,34.804300,0,,6600
785,39749,קמפוס חנקין/חנקין, רחוב:יהושע חנקין 105 עיר: חולון רציף:   קומה:  ,32.016078,34.778599,0,,6600
786,39750,הופיין/זלמן ארן, רחוב:אליעזר הופיין 11 עיר: חולון רציף:   קומה:  ,32.014254,34.766926,0,,6600
787,39751,מחלף ירקון, רחוב:יציאה לכביש 5  עיר: פתח תקווה רציף:   קומה:  ,32.122114,34.902412,0,,7900
791,39755,קמפוס חנקין/חנקין, רחוב:יהושע חנקין 110 עיר: חולון רציף:   קומה:  ,32.015703,34.778475,0,,6600
792,39756,צומת טירה, רחוב:444  עיר: דרום השרון רציף:   קומה:  ,32.232270,34.984439,0,,12752
793,39757,צומת טירה, רחוב:444  עיר: דרום השרון רציף:   קומה:  ,32.231469,34.983791,0,,12753
794,39758,צומת טייבה, רחוב:444  עיר: טייבה רציף:   קומה:  ,32.270857,35.002769,0,,12737
797,39761,פארק תעשיות, רחוב:מאיר אריאל  עיר: נתניה רציף:   קומה:  ,32.285703,34.872523,0,,7400
799,39763,הכלנית/החבצלת, רחוב:הכלנית  עיר: חגור רציף:   קומה:  ,32.137144,34.948589,0,,717
800,39764,שלדג/שביל השקיעה, רחוב:שלדג 34 עיר: מכמורת רציף:   קומה:  ,32.406903,34.873163,0,,382
801,39765,המלאכה/האורגים, רחוב:המלאכה  עיר: חולון רציף:   קומה:  ,32.012089,34.797033,0,,6600
802,39766,בי''ס מבואות ים, רחוב:דרך החוף 4 עיר: מכמורת רציף:   קומה:  ,32.403995,34.869589,0,,382
803,39767,התרופה/יד חרוצים, רחוב:יד חרוצים 17 עיר: נתניה רציף:   קומה:  ,32.282134,34.864733,0,,7400
805,39769,ת. מרכזית נתניה, רחוב:אחד העם 11 עיר: נתניה רציף:   קומה:  ,32.326689,34.859446,0,,7400
807,39771,פנחס אילון/בגין, רחוב:מנחם בגין 29 עיר: חולון רציף:   קומה:  ,32.004839,34.776296,0,,6600
808,39772,תרי עשר/אלישע, רחוב:תרי עשר 18 עיר: כפר סבא רציף:   קומה:  ,32.191338,34.939757,0,,6900
810,39774,פנחס אילון/האלוף יריב, רחוב:פנחס אילון 11 עיר: חולון רציף:   קומה:  ,32.008859,34.778175,0,,6600
811,39775,הרוקמים/הבנאי, רחוב:הרוקמים 20 עיר: חולון רציף:   קומה:  ,32.008512,34.800175,0,,6600
812,39776,הלהב/הרוקמים, רחוב:הלהב  עיר: חולון רציף:   קומה:  ,32.007224,34.801107,0,,6600
814,39778,עמק החולה/עמק זבולון, רחוב:עמק החולה 13 עיר: כפר סבא רציף:   קומה:  ,32.181070,34.935112,0,,6900
815,39779,עמק החולה/משעול עמק חפר, רחוב:עמק החולה 5 עיר: כפר סבא רציף:   קומה:  ,32.179266,34.935050,0,,6900
817,39781,הגפן/סמטת הרימון, רחוב:הגפן  עיר: ברקת רציף:   קומה:  ,32.016848,34.945729,0,,2038
818,39782,הגפן/סמטת האורן, רחוב:  עיר: ברקת רציף:   קומה:  ,32.018099,34.944759,0,,2038
820,39784,משק, רחוב:שדרת השלום  עיר: גבעת כ''ח רציף:   קומה:  ,32.030389,34.933799,0,,802
821,39785,האורן/הברוש, רחוב:האורן 18 עיר: מגשימים רציף:   קומה:  ,32.043999,34.898296,0,,722
822,39786,יצחק רבין/גרוסמן, רחוב:דרך יצחק רבין  עיר: פתח תקווה רציף:   קומה:  ,32.077582,34.860018,0,,7900
823,39787,האורגים/המרכבה, רחוב:האורגים 30 עיר: חולון רציף:   קומה:  ,32.007791,34.807276,0,,6600
824,39788,'נחשונים ב, רחוב:  עיר: נחשונים רציף:   קומה:  ,32.060729,34.949064,0,,705
825,39789,דרך יצחק רבין/העצמאות, רחוב:דרך יצחק רבין  עיר: פתח תקווה רציף:   קומה:  ,32.074141,34.860008,0,,7900
826,39790,עמק איילון/עמק החולה, רחוב:עמק החולה 1 עיר: כפר סבא רציף:   קומה:  ,32.178488,34.935162,0,,6900
827,39791,קניון, רחוב:וייצמן  עיר: כפר סבא רציף:   קומה:  ,32.170317,34.926680,0,,6900
828,39792,נורדאו/רופין, רחוב:נורדאו 9 עיר: כפר סבא רציף:   קומה:  ,32.171450,34.919008,0,,6900
830,39794,ת. רכבת נורדאו, רחוב:  עיר: כפר סבא רציף:   קומה:  ,32.167612,34.917442,0,,6900
831,39795,ת. רכבת סוקולוב, רחוב:  עיר: הוד השרון רציף:   קומה:  ,32.170307,34.902028,0,,9700
832,39796,דרך קדומים/חטיבת הנח''ל, רחוב:דרך קדומים 17 עיר: כפר סבא רציף:   קומה:  ,32.181798,34.934423,0,,6900
833,39797,דרך קדומים/חטיבת יפתח, רחוב:דרך קדומים 8 עיר: כפר סבא רציף:   קומה:  ,32.182059,34.933072,0,,6900
834,39798,קדומים/המוביל, רחוב:דרך קדומים 3 עיר: כפר סבא רציף:   קומה:  ,32.182410,34.931742,0,,6900
835,39799,בן יהודה/דרך המוביל, רחוב:דרך המוביל  עיר: כפר סבא רציף:   קומה:  ,32.182642,34.930792,0,,6900
836,39800,דוכיפת/דרך המוביל, רחוב:דרך המוביל  עיר: כפר סבא רציף:   קומה:  ,32.183949,34.930662,0,,6900
837,39801,דרך המוביל/דוכיפת, רחוב:דרך המוביל  עיר: כפר סבא רציף:   קומה:  ,32.184437,34.930744,0,,6900
838,39802,דרך המוביל/העגורים, רחוב:דרך המוביל  עיר: כפר סבא רציף:   קומה:  ,32.185831,34.930829,0,,6900
839,39803,נחליאלי/עפרוני, רחוב:נחליאלי  עיר: כפר סבא רציף:   קומה:  ,32.186960,34.929678,0,,6900
841,39805,הזמיר/נחליאלי, רחוב:זמיר 8 עיר: כפר סבא רציף:   קומה:  ,32.185322,34.928232,0,,6900
842,39806,זמיר/נחליאלי, רחוב:זמיר 13 עיר: כפר סבא רציף:   קומה:  ,32.186429,34.928379,0,,6900
843,39807,זמיר/הנשר, רחוב:זמיר 3 עיר: כפר סבא רציף:   קומה:  ,32.184479,34.927904,0,,6900
844,39808,קאנטרי קלאב/בן יהודה, רחוב:בן יהודה  עיר: כפר סבא רציף:   קומה:  ,32.183241,34.927043,0,,6900
845,39809,מטווח עירוני/בן יהודה, רחוב:בן יהודה 69 עיר: כפר סבא רציף:   קומה:  ,32.183186,34.922955,0,,6900
846,39810,הגליל/בן יהודה, רחוב:בן יהודה 90 עיר: כפר סבא רציף:   קומה:  ,32.183182,34.920514,0,,6900
848,39812,אז''ר/פרופ' דינור, רחוב:אז''ר 85 עיר: כפר סבא רציף:   קומה:  ,32.182046,34.917934,0,,6900
849,39813,טירת צבי/הגליל, רחוב:טירת צבי 11 עיר: כפר סבא רציף:   קומה:  ,32.180842,34.917817,0,,6900
850,39814,אז''ר/תל חי, רחוב:אז''ר 94 עיר: כפר סבא רציף:   קומה:  ,32.182009,34.917678,0,,6900
851,39815,יבנה/חברון, רחוב:יבנה 14 עיר: כפר סבא רציף:   קומה:  ,32.180757,34.915194,0,,6900
852,39816,בר אילן/נחל הדס, רחוב:בר אילן 25 עיר: כפר סבא רציף:   קומה:  ,32.181731,34.913225,0,,6900
853,39817,אז''ר/בר אילן, רחוב:אז''ר 66 עיר: כפר סבא רציף:   קומה:  ,32.182884,34.914328,0,,6900
854,39818,זמנהוף/משה דיין, רחוב:זמנהוף 9 עיר: כפר סבא רציף:   קומה:  ,32.177881,34.920374,0,,6900
855,39819,הגליל/זמנהוף, רחוב:הגליל 41 עיר: כפר סבא רציף:   קומה:  ,32.177963,34.918212,0,,6900
856,39820,הגליל/נעורים, רחוב:הגליל 31 עיר: כפר סבא רציף:   קומה:  ,32.176536,34.917749,0,,6900
857,39821,הכרמל/תל חי, רחוב:הכרמל 73 עיר: כפר סבא רציף:   קומה:  ,32.176932,34.914404,0,,6900
858,39822,וייצמן/תל חי, רחוב:וייצמן 153 עיר: כפר סבא רציף:   קומה:  ,32.173907,34.914826,0,,6900
860,39824,הכרמל/משעול השיר, רחוב:הכרמל 57 עיר: כפר סבא רציף:   קומה:  ,32.177581,34.911545,0,,6900
862,39826,הכרמל/העבודה, רחוב:הכרמל 25 עיר: כפר סבא רציף:   קומה:  ,32.178461,34.907682,0,,6900
863,39827,השחר/השלום, רחוב:השחר 12 עיר: כפר סבא רציף:   קומה:  ,32.180341,34.909755,0,,6900
866,39830,בית חולים מאיר, רחוב:טשרניחובסקי  עיר: כפר סבא רציף:   קומה:  ,32.181056,34.897786,0,,6900
867,39831,בית חולים מאיר, רחוב:טשרניחובסקי  עיר: כפר סבא רציף:   קומה:  ,32.181197,34.897648,0,,6900
868,39832,מכבי אש/טשרניחובסקי, רחוב:טשרניחובסקי 42 עיר: כפר סבא רציף:   קומה:  ,32.179132,34.895692,0,,6900
869,39833,טשרניחובסקי/גולומב, רחוב:טשרניחובסקי 41 עיר: כפר סבא רציף:   קומה:  ,32.179587,34.895908,0,,6900
870,39834,טשרניחובסקי/סנה, רחוב:טשרניחובסקי 73 עיר: כפר סבא רציף:   קומה:  ,32.182538,34.899128,0,,6900
871,39835,טשרניחובסקי/סמילנסקי, רחוב:טשרניחובסקי 72 עיר: כפר סבא רציף:   קומה:  ,32.183660,34.900633,0,,6900
872,39836,טשרניחובסקי/בן יהודה, רחוב:טשרניחובסקי  עיר: כפר סבא רציף:   קומה:  ,32.186500,34.903738,0,,6900
873,39837,טשרניחובסקי/בן יהודה, רחוב:טשרניחובסקי 121 עיר: כפר סבא רציף:   קומה:  ,32.186513,34.903427,0,,6900
874,39838,בגין/כצנלסון, רחוב:שדרות מנחם בגין  עיר: כפר סבא רציף:   קומה:  ,32.187232,34.903400,0,,6900
876,39840,גבעולים/דוד רמז, רחוב:דוד רמז 1 עיר: כפר סבא רציף:   קומה:  ,32.187997,34.904513,0,,6900
877,39841,טשרניחובסקי/כנפי נשרים, רחוב:טשרניחובסקי 112 עיר: כפר סבא רציף:   קומה:  ,32.189018,34.906165,0,,6900
878,39842,טשרניחובסקי/כנפי נשרים, רחוב:טשרניחובסקי 143 עיר: כפר סבא רציף:   קומה:  ,32.189203,34.906032,0,,6900
879,39843,דוד רמז/האחווה, רחוב:דוד רמז 15 עיר: כפר סבא רציף:   קומה:  ,32.189835,34.902716,0,,6900
880,39844,מרכז מסחרי/רמז, רחוב:דוד רמז 19 עיר: כפר סבא רציף:   קומה:  ,32.190361,34.902012,0,,6900
881,39845,דוד רמז/ויתקין, רחוב:דוד רמז 23 עיר: כפר סבא רציף:   קומה:  ,32.190849,34.900726,0,,6900
882,39846,דוד רמז/ויתקין, רחוב:דוד רמז 31 עיר: כפר סבא רציף:   קומה:  ,32.191134,34.899803,0,,6900
883,39847,רמז - מרכז הנוער, רחוב:רינגלבלום  עיר: כפר סבא רציף:   קומה:  ,32.191380,34.896851,0,,6900
884,39848,בגין/משה סנה, רחוב:שדרות מנחם בגין  עיר: כפר סבא רציף:   קומה:  ,32.189361,34.898453,0,,6900
885,39849,שד. מנחם בגין/האחדות, רחוב:שדרות מנחם בגין  עיר: כפר סבא רציף:   קומה:  ,32.188521,34.899542,0,,6900
886,39850,סנה/קדושי קהיר, רחוב:ד''ר משה סנה 31 עיר: כפר סבא רציף:   קומה:  ,32.187227,34.896764,0,,6900
887,39851,משה סנה/השמחה, רחוב:ד''ר משה סנה 17 עיר: כפר סבא רציף:   קומה:  ,32.185250,34.896139,0,,6900
888,39852,אזור תעשיה סנטרל פארק 2000, רחוב:עתיר ידע 16 עיר: כפר סבא רציף:   קומה:  ,32.161871,34.933991,0,,6900
889,39853,אזור תעשיה סנטרל פארק 2000, רחוב:עתיר ידע 15 עיר: כפר סבא רציף:   קומה:  ,32.161913,34.934127,0,,6900
890,39854,אזור תעשיה סנטרל פארק 2000, רחוב:עתיר ידע 20 עיר: כפר סבא רציף:   קומה:  ,32.161272,34.935371,0,,6900
891,39855,אזור תעשיה סנטרל פארק 2000, רחוב:עתיר ידע 23 עיר: כפר סבא רציף:   קומה:  ,32.161011,34.936205,0,,6900
892,39856,תרי עשר/גדעון, רחוב:תרי עשר 40 עיר: כפר סבא רציף:   קומה:  ,32.191938,34.937308,0,,6900
893,39857,ישעיהו/בת יפתח, רחוב:ישעיהו 23 עיר: כפר סבא רציף:   קומה:  ,32.190080,34.937597,0,,6900
894,39858,השחר/פינס, רחוב:השחר 22 עיר: כפר סבא רציף:   קומה:  ,32.181910,34.910248,0,,6900
895,39859,ברש/ש''י עגנון, רחוב:אשר ברש  עיר: כפר סבא רציף:   קומה:  ,32.184913,34.907705,0,,6900
896,39860,ברש/ש''י עגנון, רחוב:אשר ברש  עיר: כפר סבא רציף:   קומה:  ,32.185055,34.907640,0,,6900
898,39862,קרית חינוך/אז''ר, רחוב:אז''ר 45 עיר: כפר סבא רציף:   קומה:  ,32.183877,34.909939,0,,6900
899,39863,אז''ר / השחר, רחוב:אז''ר 44 עיר: כפר סבא רציף:   קומה:  ,32.183420,34.911550,0,,6900
903,39867,בן גוריון/פרדס משותף, רחוב:בן גוריון 45 עיר: רעננה רציף:   קומה:  ,32.175102,34.869283,0,,8700
906,39870,הפרחים/משה דיין, רחוב:הפרחים 1 עיר: רעננה רציף:   קומה:  ,32.177535,34.861213,0,,8700
908,39872,המלכים/יעקב דורי, רחוב:המלכים 34 עיר: רעננה רציף:   קומה:  ,32.179713,34.860052,0,,8700
910,39874,פיכמן/הופיין, רחוב:יעקב פיכמן  עיר: חולון רציף:   קומה:  ,32.013642,34.775162,0,,6600
911,39875,המלכים/יגאל ידין, רחוב:המלכים 8 עיר: רעננה רציף:   קומה:  ,32.182551,34.860937,0,,8700
912,39876,הנשיאים/וינגייט, רחוב:הנשיאים 11 עיר: רעננה רציף:   קומה:  ,32.184962,34.861692,0,,8700
914,39879,החי''ל/חפץ חיים, רחוב:החי''ל 28 עיר: רעננה רציף:   קומה:  ,32.185348,34.867403,0,,8700
915,39880,החי''ל/חפץ חיים, רחוב:חפץ חיים 19 עיר: רעננה רציף:   קומה:  ,32.184717,34.867830,0,,8700
917,39882,אלי כהן/חפץ חיים, רחוב:חפץ חיים 35 עיר: רעננה רציף:   קומה:  ,32.186500,34.868377,0,,8700
918,39883,קרן היסוד/גולומב, רחוב:קרן היסוד 14 עיר: רעננה רציף:   קומה:  ,32.183549,34.871097,0,,8700
919,39884,קרן היסוד/גולומב, רחוב:קרן היסוד 9 עיר: רעננה רציף:   קומה:  ,32.182967,34.870675,0,,8700
920,39885,בורוכוב/הנגב, רחוב:בורוכוב 12 עיר: רעננה רציף:   קומה:  ,32.181409,34.876502,0,,8700
921,39886,בורוכוב/החשמונאים, רחוב:בורוכוב 44 עיר: רעננה רציף:   קומה:  ,32.185425,34.877762,0,,8700
922,39887,ההסתדרות/בורוכוב, רחוב:ההסתדרות 1 עיר: רעננה רציף:   קומה:  ,32.185942,34.877544,0,,8700
925,39890,ההסתדרות/קרן היסוד, רחוב:ההסתדרות 29 עיר: רעננה רציף:   קומה:  ,32.186981,34.872855,0,,8700
927,39892,בורוכוב/הפלמ''ח, רחוב:בורוכוב 83 עיר: רעננה רציף:   קומה:  ,32.190853,34.878208,0,,8700
928,39893,מקלט ציבורי/הפלמ''ח, רחוב:הפלמ''ח  עיר: רעננה רציף:   קומה:  ,32.190606,34.876231,0,,8700
929,39894,בורוכוב/הפלמ''ח, רחוב:בורוכוב 86 עיר: רעננה רציף:   קומה:  ,32.189883,34.878353,0,,8700
930,39895,בורוכוב/ברל כצנלסון, רחוב:בורוכוב 94 עיר: רעננה רציף:   קומה:  ,32.191584,34.878189,0,,8700
931,39896,בורוכוב/וייצמן, רחוב:וייצמן 71 עיר: רעננה רציף:   קומה:  ,32.192385,34.878513,0,,8700
932,39897,בורוכוב/וייצמן, רחוב:וייצמן 60 עיר: רעננה רציף:   קומה:  ,32.192566,34.877275,0,,8700
933,39898,ויצמן/קרן היסוד, רחוב:וייצמן 93 עיר: רעננה רציף:   קומה:  ,32.192346,34.875194,0,,8700
934,39899,קרן היסוד/וייצמן, רחוב:קרן היסוד 75 עיר: רעננה רציף:   קומה:  ,32.191924,34.874179,0,,8700
935,39900,החרושת/וייצמן, רחוב:וייצמן 20 עיר: רעננה רציף:   קומה:  ,32.192411,34.880429,0,,8700
936,39901,דרך הים/הזית, רחוב:דרך הים  עיר: בני דרום רציף:   קומה:  ,31.818892,34.691152,0,,592
937,39902,עקיבא/האלה, רחוב:עקיבא 88 עיר: רעננה רציף:   קומה:  ,32.188874,34.883296,0,,8700
938,39903,עקיבא/שד. הרדוף, רחוב:עקיבא 97 עיר: רעננה רציף:   קומה:  ,32.188917,34.883046,0,,8700
940,39905,התדהר/השיזף, רחוב:התדהר 2 עיר: רעננה רציף:   קומה:  ,32.192173,34.883956,0,,8700
942,39907,התדהר/התעשיה, רחוב:התדהר 13 עיר: רעננה רציף:   קומה:  ,32.196211,34.884360,0,,8700
943,39908,התדהר/התעשייה, רחוב:התדהר  עיר: רעננה רציף:   קומה:  ,32.197342,34.884461,0,,8700
945,39910,התעשייה/זרחין, רחוב:התעשייה 2 עיר: רעננה רציף:   קומה:  ,32.196839,34.883406,0,,8700
946,39911,החרושת/המסגר, רחוב:החרושת 14 עיר: רעננה רציף:   קומה:  ,32.195590,34.880563,0,,8700
947,39912,החרושת/המסגר, רחוב:החרושת 19 עיר: רעננה רציף:   קומה:  ,32.195385,34.880484,0,,8700
948,39913,החרושת/ויצמן, רחוב:החרושת 5 עיר: רעננה רציף:   קומה:  ,32.193587,34.880771,0,,8700
949,39914,החרושת/ויצמן, רחוב:החרושת 6 עיר: רעננה רציף:   קומה:  ,32.193106,34.880979,0,,8700
950,39915,קניון רננים, רחוב:התעשייה 20 עיר: רעננה רציף:   קומה:  ,32.196602,34.879661,0,,8700
952,39917,הסדנא/התעשייה, רחוב:הסדנא 3 עיר: רעננה רציף:   קומה:  ,32.195985,34.878688,0,,8700
953,39918,קאנטרי/הסדנא, רחוב:  עיר: רעננה רציף:   קומה:  ,32.193914,34.878379,0,,8700
954,39919,אסתר המלכה/עתידים, רחוב:אסתר המלכה 3 עיר: רעננה רציף:   קומה:  ,32.197303,34.875598,0,,8700
955,39920,דב הוז/יוחנן בן זכאי, רחוב:דב הוז 25 עיר: רעננה רציף:   קומה:  ,32.195644,34.873984,0,,8700
956,39921,דב הוז/סעדיה גאון, רחוב:דב הוז 9 עיר: רעננה רציף:   קומה:  ,32.193519,34.873504,0,,8700
957,39922,וייצמן/עתידים, רחוב:וייצמן 88 עיר: רעננה רציף:   קומה:  ,32.192547,34.873639,0,,8700
959,39924,מקלט/שמואל הנגיד, רחוב:שמואל הנגיד 31 עיר: רעננה רציף:   קומה:  ,32.191118,34.871376,0,,8700
960,39925,איזי שפירא/שבזי, רחוב:שבזי 4 עיר: רעננה רציף:   קומה:  ,32.190079,34.869461,0,,8700
961,39927,קרן היסוד/הקוממיות, רחוב:קרן היסוד 61 עיר: רעננה רציף:   קומה:  ,32.189581,34.873036,0,,8700
962,39928,קרן היסוד/ההסתדרות, רחוב:קרן היסוד 47 עיר: רעננה רציף:   קומה:  ,32.187037,34.871954,0,,8700
963,39929,'דב גרונר/מרדכי אנילביץ, רחוב:מרדכי אנילביץ' 33 עיר: רעננה רציף:   קומה:  ,32.188582,34.868288,0,,8700
964,39930,מגדל/ההגנה, רחוב:ההגנה 97 עיר: רעננה רציף:   קומה:  ,32.189084,34.866327,0,,8700
965,39931,המחתרות/שפינוזה, רחוב:המחתרות 3 עיר: רעננה רציף:   קומה:  ,32.189637,34.864846,0,,8700
966,39932,קרייתי/שרת, רחוב:חטיבת קרייתי 3 עיר: רמלה רציף:   קומה:  ,31.933073,34.854629,0,,8500
967,39933,ישיבה, רחוב:התיכונית  עיר: שעלבים רציף:   קומה:  ,31.870149,34.986287,0,,856
968,39934,'נחשונים א, רחוב:  עיר: נחשונים רציף:   קומה:  ,32.062327,34.945987,0,,705
970,39936,יוספטל/מבצע סיני, רחוב:יוספטל 109 עיר: בת ים רציף:   קומה:  ,32.015808,34.758685,0,,6200
971,39937,רוז'נסקי/דוד רזיאל, רחוב:רוז'נסקי 8 עיר: ראשון לציון רציף:   קומה:  ,31.987036,34.770427,0,,8300
972,39938,רוז'נסקי/דוד רזיאל, רחוב:רוז'נסקי  עיר: ראשון לציון רציף:   קומה:  ,31.986974,34.770779,0,,8300
973,39939,ספרייה/החורב, רחוב:  עיר: חניאל רציף:   קומה:  ,32.328543,34.946045,0,,807
974,39940,'כפר הס ד, רחוב:דרך ההתיישבות 10 עיר: כפר הס רציף:   קומה:  ,32.247858,34.930224,0,,187
976,39942,אברהם בר/דוד סחרוב, רחוב:אברהם בר 34 עיר: ראשון לציון רציף:   קומה:  ,31.987452,34.775177,0,,8300
977,39943,דוד סחרוב/אברהם בר, רחוב:דוד סחרוב 42 עיר: ראשון לציון רציף:   קומה:  ,31.989257,34.774922,0,,8300
978,39944,אברהם בר/רוז'נסקי, רחוב:אברהם בר  עיר: ראשון לציון רציף:   קומה:  ,31.986716,34.774430,0,,8300
979,39945,מרכז מסחרי/שרון, רחוב:שרון  עיר: קרית שדה התעופה רציף:   קומה:  ,31.985879,34.915081,0,,1746
980,39947,דרך מנהרת העיר/דרך לוד הירוקה, רחוב:דרך לוד הירוקה  עיר: לוד רציף:   קומה:  ,31.946485,34.904671,0,,7000
981,39948,וייצמן/ירושלים, רחוב:וייצמן 213 עיר: רעננה רציף:   קומה:  ,32.192725,34.856196,0,,8700
983,39950,אלימלך רימלט/הגלבוע, רחוב:אלימלך רימלט 18 עיר: רעננה רציף:   קומה:  ,32.195512,34.849866,0,,8700
984,39951,יאיר/רימלט, רחוב:יאיר שטרן 5 עיר: רעננה רציף:   קומה:  ,32.194755,34.847868,0,,8700
985,39952,הנשיאים/וייצמן, רחוב:וייצמן  עיר: רעננה רציף:   קומה:  ,32.192560,34.862538,0,,8700
986,39953,הנשיאים/וייצמן, רחוב:וייצמן 173 עיר: רעננה רציף:   קומה:  ,32.192390,34.864310,0,,8700
987,39954,ויצמן/מגדל, רחוב:וייצמן  עיר: רעננה רציף:   קומה:  ,32.192458,34.866262,0,,8700
990,39957,מכולת, רחוב:  עיר: כפר יעבץ רציף:   קומה:  ,32.274807,34.965774,0,,170
991,39958,בית ספר דקל/שברץ, רחוב:שברץ 31 עיר: רעננה רציף:   קומה:  ,32.182834,34.882013,0,,8700
992,39959,אחוזה/בן גוריון, רחוב:בן גוריון 3 עיר: רעננה רציף:   קומה:  ,32.180347,34.871970,0,,8700
994,39961,צומת רעננה, רחוב:הפנינה 1 עיר: רעננה רציף:   קומה:  ,32.175408,34.889937,0,,8700
995,39962,עקיבא/ציפמן, רחוב:עקיבא 44 עיר: רעננה רציף:   קומה:  ,32.185264,34.882351,0,,8700
996,39963,אוסטרובסקי/בן גוריון, רחוב:בן גוריון 13 עיר: רעננה רציף:   קומה:  ,32.179065,34.870839,0,,8700
997,39964,עקיבא/ציפמן, רחוב:עקיבא 63 עיר: רעננה רציף:   קומה:  ,32.185435,34.882258,0,,8700
999,39966,סוקולוב/ששת הימים, רחוב:סוקולוב 27 עיר: כפר סבא רציף:   קומה:  ,32.173532,34.901719,0,,6900
1007,39974,ד''ר משה סנה/קדושי קהיר, רחוב:ד''ר משה סנה 15 עיר: כפר סבא רציף:   קומה:  ,32.185015,34.896572,0,,6900
1010,39977,תיכון רבין/החי''ש, רחוב:החי''ש 6 עיר: כפר סבא רציף:   קומה:  ,32.184554,34.912953,0,,6900
1013,39980,ברל כצנלסון/גולומב, רחוב:ברל כצנלסון 20 עיר: כפר סבא רציף:   קומה:  ,32.178664,34.903331,0,,6900
1014,39981,חיים וייצמן/יצחק בן צבי, רחוב:חיים וייצמן  עיר: הוד השרון רציף:   קומה:  ,32.166024,34.909163,0,,9700
1017,39984,חיים וייצמן/בן צבי, רחוב:חיים וייצמן  עיר: הוד השרון רציף:   קומה:  ,32.165835,34.910008,0,,9700
1020,39987,הגיבור/שחר, רחוב:הגיבור 16 עיר: הוד השרון רציף:   קומה:  ,32.150048,34.891951,0,,9700
1021,39988,הגיבור/המעלה, רחוב:הגיבור 3 עיר: הוד השרון רציף:   קומה:  ,32.149968,34.894018,0,,9700
1024,39991,הציונות/היהלום, רחוב:הציונות 1 עיר: הוד השרון רציף:   קומה:  ,32.146603,34.885780,0,,9700
1025,39992,הציונות/היהלום, רחוב:הציונות 5 עיר: הוד השרון רציף:   קומה:  ,32.146251,34.885713,0,,9700
1026,39993,ז'בוטינסקי/הדסים, רחוב:ז'בוטינסקי 85 עיר: הוד השרון רציף:   קומה:  ,32.143369,34.883089,0,,9700
1027,39994,ז'בוטינסקי/האשל, רחוב:ז'בוטינסקי 105 עיר: הוד השרון רציף:   קומה:  ,32.143206,34.879323,0,,9700
1028,39995,קניון שרונים/הרקון, רחוב:קניון שרונים  עיר: הוד השרון רציף:   קומה:  ,32.133883,34.901937,0,,9700
1030,39997,שד. עמק איילון - כיכר אגמית, רחוב:שדרות עמק איילון  עיר: שוהם רציף:   קומה:  ,32.006593,34.950234,0,,1304
1031,39998,שד. עמק איילון - כיכר שקנאי, רחוב:שדרות עמק איילון  עיר: שוהם רציף:   קומה:  ,32.006036,34.949396,0,,1304
1034,40001,אמפיתאטרון, רחוב:  עיר: קיסריה רציף:   קומה:  ,32.496682,34.892801,0,,1167
1036,40003,קיבוץ שדות ים, רחוב:  עיר: שדות ים רציף:   קומה:  ,32.494159,34.892620,0,,327
1038,40005,מושב בן חנניה, רחוב:טורקיז  עיר: בית חנניה רציף:   קומה:  ,32.529115,34.926359,0,,800
1040,40007,מרכז עתיקות, רחוב:דרך קיסריה  עיר: קיסריה רציף:   קומה:  ,32.501807,34.894139,0,,1167
1041,40008,בית חולים הלל יפה, רחוב:השלום  עיר: חדרה רציף:   קומה:  ,32.447002,34.895075,0,,6500
1042,40009,צומת בית חולים הלל יפה, רחוב:אהרון אהרונסון 6 עיר: חדרה רציף:   קומה:  ,32.446165,34.894992,0,,6500
1043,40012,צומת בית חולים הלל יפה, רחוב:אהרון אהרונסון 7 עיר: חדרה רציף:   קומה:  ,32.446340,34.895262,0,,6500
1044,40013,ישיבת בני עקיבא/השלום, רחוב:השלום  עיר: חדרה רציף:   קומה:  ,32.449288,34.896813,0,,6500
1046,40016,ישיבת בני עקיבא/השלום, רחוב:השלום  עיר: חדרה רציף:   קומה:  ,32.450074,34.897386,0,,6500
1047,40017,אהרון אהרונסון/הר צין, רחוב:אהרון אהרונסון 31 עיר: חדרה רציף:   קומה:  ,32.446238,34.897657,0,,6500
1048,40019,בית חולים הלל יפה, רחוב:השלום  עיר: חדרה רציף:   קומה:  ,32.451608,34.898483,0,,6500
1049,40020,בית חולים הלל יפה, רחוב:השלום  עיר: חדרה רציף:   קומה:  ,32.451715,34.898703,0,,6500
1050,40021,בית חולים הלל יפה, רחוב:השלום  עיר: חדרה רציף:   קומה:  ,32.452533,34.899491,0,,6500
1051,40023,השלום/בר אילן, רחוב:השלום  עיר: חדרה רציף:   קומה:  ,32.453078,34.900468,0,,6500
1052,40024,אהרון אהרונסון/יגאל אלון, רחוב:אהרון אהרונסון 55 עיר: חדרה רציף:   קומה:  ,32.444816,34.900603,0,,6500
1053,40025,אהרון אהרונסון/יגאל אלון, רחוב:אהרון אהרונסון 54 עיר: חדרה רציף:   קומה:  ,32.443981,34.900883,0,,6500
1057,40029,אהרון אהרונסון/יצחק גרינבוים, רחוב:אהרון אהרונסון 71 עיר: חדרה רציף:   קומה:  ,32.443174,34.901604,0,,6500
1059,40031,אהרון אהרונסון/יצחק גרינבוים, רחוב:גיורא צחור  עיר: חדרה רציף:   קומה:  ,32.442293,34.901181,0,,6500
1061,40033,מלון-קיסריה, רחוב:רוטשילד  עיר: קיסריה רציף:   קומה:  ,32.498217,34.903725,0,,1167
1062,40034,דוד שמעוני/יחיעם, רחוב:גשר אריאל שרון 7 עיר: חדרה רציף:   קומה:  ,32.439911,34.903895,0,,6500
1066,40040,רוטשילד/הרימון, רחוב:רוטשילד  עיר: קיסריה רציף:   קומה:  ,32.509870,34.904707,0,,1167
1067,40041,צומת מלון קיסריה, רחוב:דרך קיסריה  עיר: קיסריה רציף:   קומה:  ,32.502765,34.903871,0,,1167
1068,40042,רוטשילד/המגדל, רחוב:רוטשילד  עיר: קיסריה רציף:   קומה:  ,32.504764,34.904183,0,,1167
1071,40045,מרכז מסחרי/השלום, רחוב:השלום  עיר: חדרה רציף:   קומה:  ,32.454547,34.904619,0,,6500
1072,40046,רוטשילד/כביש 6511, רחוב:רוטשילד  עיר: קיסריה רציף:   קומה:  ,32.502100,34.904982,0,,1167
1073,40048,מלון קיסרית, רחוב:רוטשילד  עיר: קיסריה רציף:   קומה:  ,32.510795,34.905056,0,,1167
1074,40049,כביש 6511/רוטשילד, רחוב:6511  עיר: קיסריה רציף:   קומה:  ,32.503397,34.905875,0,,1167
1075,40050,מרכז מסחרי/השלום, רחוב:השלום  עיר: חדרה רציף:   קומה:  ,32.454719,34.905345,0,,6500
1077,40053,דוד שמעוני/גשר אריאל שרון, רחוב:דוד שמעוני 14 עיר: חדרה רציף:   קומה:  ,32.439788,34.905516,0,,6500
1080,40057,אזור תעשיה צפוני, רחוב:השלום  עיר: חדרה רציף:   קומה:  ,32.455165,34.906323,0,,6500
1081,40059,צומת חפציבה, רחוב:4  עיר: חדרה רציף:   קומה:  ,32.457375,34.907100,0,,6500
1082,40060,צומת חרושת, רחוב:4  עיר: חדרה רציף:   קומה:  ,32.454646,34.907116,0,,6500
1084,40063,אזור תעשיה צפוני, רחוב:4  עיר: חדרה רציף:   קומה:  ,32.455384,34.907161,0,,13173
1086,40067,רוטשילד/זמיר, רחוב:רוטשילד  עיר: קיסריה רציף:   קומה:  ,32.528991,34.907367,0,,1167
1087,40068,רוטשילד/איריס, רחוב:רוטשילד  עיר: קיסריה רציף:   קומה:  ,32.520182,34.907780,0,,1167
1090,40071,צומת חרושת, רחוב:4  עיר: חדרה רציף:   קומה:  ,32.458288,34.908006,0,,13172
1091,40072,הדר/רוטשילד, רחוב:רוטשילד  עיר: קיסריה רציף:   קומה:  ,32.526687,34.908117,0,,1167
1092,40073,כביש 4/חוף הכרמל, רחוב:4  עיר: חדרה רציף:   קומה:  ,32.451889,34.908517,0,,6500
1093,40074,צומת נווה חיים, רחוב:4  עיר: חדרה רציף:   קומה:  ,32.450937,34.908657,0,,13175
1095,40076,רוטשילד/סנפיר, רחוב:רוטשילד  עיר: קיסריה רציף:   קומה:  ,32.522972,34.908850,0,,1167
1096,40077,צומת נווה חיים, רחוב:4  עיר: חדרה רציף:   קומה:  ,32.450425,34.909135,0,,13176
1097,40078,דוד שמעוני/קלז, רחוב:דוד שמעוני 41 עיר: חדרה רציף:   קומה:  ,32.438960,34.909170,0,,6500
1098,40079,שערי חדרה/כביש 4, רחוב:4  עיר: חדרה רציף:   קומה:  ,32.432771,34.909314,0,,13180
1099,40082,אזור תעשיה דרומי, רחוב:4  עיר: חדרה רציף:   קומה:  ,32.446689,34.910224,0,,6500
1103,40087,צומת חדרה, רחוב:הרברט סמואל 7 עיר: חדרה רציף:   קומה:  ,32.438505,34.911652,0,,6500
1105,40089,צומת חדרה, רחוב:הרברט סמואל 6 עיר: חדרה רציף:   קומה:  ,32.438175,34.912163,0,,6500
1106,40090,אזור תעשיה דרומי, רחוב:4  עיר: חדרה רציף:   קומה:  ,32.443949,34.910939,0,,13179
1107,40092,כביש 4/שדרות החרות, רחוב:4  עיר: חדרה רציף:   קומה:  ,32.442749,34.911323,0,,6500
1108,40094,בית עלמין, רחוב:יצחק בן צבי  עיר: חדרה רציף:   קומה:  ,32.409429,34.912009,0,,6500
1109,40095,צומת חדרה, רחוב:הרברט סמואל 7 עיר: חדרה רציף:   קומה:  ,32.438467,34.911828,0,,6500
1110,40096,בית עלמין, רחוב:יצחק בן צבי  עיר: חדרה רציף:   קומה:  ,32.409079,34.911989,0,,6500
1111,40097,צומת נחל חדרה, רחוב:4  עיר: מנשה רציף:   קומה:  ,32.464412,34.912191,0,,1869
1115,40102,ביאליק/הרצל, רחוב:ביאליק 5 עיר: אור עקיבא רציף:   קומה:  ,32.507228,34.913800,0,,1020
1117,40104,ת. מרכזית חדרה, רחוב:אחד העם 2 עיר: חדרה רציף:   קומה:  ,32.436233,34.913680,0,,6500
1119,40110,ת. מרכזית חדרה/הורדה, רחוב:  עיר: חדרה רציף:   קומה:  ,32.435324,34.914147,0,,6500
1120,40111,ביאליק/רוטשילד, רחוב:ביאליק 2 עיר: אור עקיבא רציף:   קומה:  ,32.506600,34.913973,0,,1020
1122,40114,רמב''ם/הרצוג, רחוב:רמב''ם 24 עיר: חדרה רציף:   קומה:  ,32.439018,34.914245,0,,6500
1124,40116,תיכון חדרה/רמב''ם, רחוב:רמב''ם  עיר: חדרה רציף:   קומה:  ,32.439226,34.914206,0,,6500
1125,40117,צומת נחל חדרה, רחוב:4  עיר: חדרה רציף:   קומה:  ,32.465531,34.914333,0,,13171
1126,40118,מנחם ציוני/עליזה יאנסן, רחוב:מנחם ציוני 17 עיר: אור עקיבא רציף:   קומה:  ,32.511724,34.914608,0,,1020
1128,40120,הרצל/מנחם ציוני, רחוב:מנחם ציוני  עיר: אור עקיבא רציף:   קומה:  ,32.510378,34.914954,0,,1020
1130,40126,יצחק בן צבי/יוסף ספיר, רחוב:יצחק בן צבי 7 עיר: חדרה רציף:   קומה:  ,32.426693,34.915346,0,,6500
1131,40127,יצחק בן צבי/יוסף ספיר, רחוב:יצחק בן צבי 4 עיר: חדרה רציף:   קומה:  ,32.426892,34.915469,0,,6500
1132,40133,רוטשילד/מנחם ציוני, רחוב:רוטשילד 27 עיר: אור עקיבא רציף:   קומה:  ,32.506520,34.915657,0,,1020
1133,40134,יצחק בן צבי/אסירי ציון, רחוב:יצחק בן צבי 30 עיר: חדרה רציף:   קומה:  ,32.431849,34.915722,0,,6500
1134,40135,יצחק בן צבי/אסירי ציון, רחוב:יצחק בן צבי 47 עיר: חדרה רציף:   קומה:  ,32.431764,34.915547,0,,6500
1138,40140,בית ספר תר''מ/הרימון, רחוב:  עיר: חרב לאת רציף:   קומה:  ,32.406403,34.916386,0,,422
1139,40142,הנשיא וייצמן/קארו, רחוב:שדרות הנשיא וייצמן 16 עיר: חדרה רציף:   קומה:  ,32.440454,34.916754,0,,6500
1140,40143,אבן גבירול/חיים הזז, רחוב:אבן גבירול  עיר: אור עקיבא רציף:   קומה:  ,32.514893,34.915720,0,,1020
1141,40144,הלל יפה/הרברט סמואל, רחוב:הלל יפה 28 עיר: חדרה רציף:   קומה:  ,32.437756,34.917382,0,,6500
1143,40146,בית ספר יאנסן/עליזה יאנסן, רחוב:עליזה יאנסן  עיר: אור עקיבא רציף:   קומה:  ,32.512445,34.916852,0,,1020
1144,40147,הנשיא וייצמן/הלל יפה, רחוב:שדרות הנשיא וייצמן 30 עיר: חדרה רציף:   קומה:  ,32.439840,34.919024,0,,6500
1145,40148,עליזה יאנסן/שדרות הנשיא ויצמן, רחוב:עליזה יאנסן  עיר: אור עקיבא רציף:   קומה:  ,32.512799,34.918256,0,,1020
1146,40150,הנשיא וייצמן/יהודה הלוי, רחוב:שדרות הנשיא וייצמן 15 עיר: חדרה רציף:   קומה:  ,32.440334,34.917896,0,,6500
1148,40153,שדרות ירושלים/יהודה הלוי, רחוב:שדרות ירושלים 3 עיר: אור עקיבא רציף:   קומה:  ,32.514364,34.918707,0,,1020
1149,40154,דוד אלעזר/ הנשיא, רחוב:שדרות הנשיא וייצמן  עיר: אור עקיבא רציף:   קומה:  ,32.513492,34.918775,0,,1020
1152,40159,שד. הנשיא וייצמן/סמטת חי טייב, רחוב:שדרות הנשיא וייצמן  עיר: אור עקיבא רציף:   קומה:  ,32.512395,34.919256,0,,1020
1153,40160,שד. הנשיא וייצמן/סמטת חי טייב, רחוב:שדרות הנשיא וייצמן  עיר: אור עקיבא רציף:   קומה:  ,32.511750,34.919209,0,,1020
1154,40161,צומת פל ים, רחוב:4  עיר: קיסריה רציף:   קומה:  ,32.479664,34.919530,0,,1167
1155,40163,שד. הנשיא וייצמן/הגיבורים, רחוב:שדרות הנשיא וייצמן 21 עיר: אור עקיבא רציף:   קומה:  ,32.509859,34.919841,0,,1020
1158,40166,כיכר צ'רנין/כביש 6511, רחוב:  עיר: אור עקיבא רציף:   קומה:  ,32.503387,34.918465,0,,1020
1159,40168,וייצמן/חללי דקר, רחוב:שדרות הנשיא וייצמן  עיר: אור עקיבא רציף:   קומה:  ,32.505635,34.919795,0,,1020
1162,40171,ויצמן/הרצוג, רחוב:שדרות הנשיא וייצמן  עיר: אור עקיבא רציף:   קומה:  ,32.508081,34.919993,0,,1020
1163,40172,שד. הנשיא וייצמן/הרצוג, רחוב:שדרות הנשיא וייצמן 31 עיר: אור עקיבא רציף:   קומה:  ,32.508255,34.920171,0,,1020
1165,40174,צומת פל ים, רחוב:4  עיר: קיסריה רציף:   קומה:  ,32.481227,34.920404,0,,1167
1166,40175,צומת פל ים, רחוב:651  עיר: קיסריה רציף:   קומה:  ,32.480070,34.920973,0,,1167
1167,40177,הזית/ההדס, רחוב:הזית  עיר: אור עקיבא רציף:   קומה:  ,32.516118,34.921115,0,,1020
1168,40179,אחד העם/סמסונוב, רחוב:אחד העם 29 עיר: חדרה רציף:   קומה:  ,32.434361,34.920920,0,,6500
1169,40180,הנשיא וייצמן/הבנים, רחוב:שדרות הנשיא וייצמן 39 עיר: חדרה רציף:   קומה:  ,32.439472,34.921058,0,,6500
1170,40181,הנשיא וייצמן/הבנים, רחוב:שדרות הנשיא וייצמן 40 עיר: חדרה רציף:   קומה:  ,32.439335,34.920875,0,,6500
1171,40182,צומת פל ים, רחוב:651  עיר: קיסריה רציף:   קומה:  ,32.480301,34.920977,0,,12222
1173,40184,הרברט סמואל/שד. רוטשילד, רחוב:הרברט סמואל 70 עיר: חדרה רציף:   קומה:  ,32.435974,34.921001,0,,6500
1175,40186,הנשיא וייצמן/הבנים, רחוב:שדרות הנשיא וייצמן 42 עיר: חדרה רציף:   קומה:  ,32.439290,34.921042,0,,6500
1176,40188,שדרות דוד המלך/גלפנשטיין, רחוב:שדרות דוד המלך  עיר: אור עקיבא רציף:   קומה:  ,32.500749,34.921146,0,,1020
1177,40189,שד. דוד המלך/הרימון, רחוב:שדרות דוד המלך  עיר: אור עקיבא רציף:   קומה:  ,32.497788,34.921167,0,,1020
1178,40191,שדרות דוד המלך/הסיגלית, רחוב:שדרות דוד המלך  עיר: אור עקיבא רציף:   קומה:  ,32.499358,34.921156,0,,1020
1179,40192,שד. דוד המלך/הרימון, רחוב:הרימון  עיר: אור עקיבא רציף:   קומה:  ,32.497588,34.922015,0,,1020
1180,40193,שד. שידלובסקי/ניל''י, רחוב:שדרות שידלובסקי  עיר: אור עקיבא רציף:   קומה:  ,32.505028,34.921759,0,,1020
1183,40196,מרכז מבנה תעשיה/הזית, רחוב:הזית  עיר: אור עקיבא רציף:   קומה:  ,32.516369,34.921044,0,,1020
1184,40197,הגיבורים/הרברט סמואל, רחוב:הגיבורים 55 עיר: חדרה רציף:   קומה:  ,32.436292,34.922659,0,,6500
1186,40199,הזית/ערבה, רחוב:הזית  עיר: אור עקיבא רציף:   קומה:  ,32.516749,34.923135,0,,1020
1187,40200,הגיבורים/העלייה הראשונה, רחוב:הגיבורים 68 עיר: חדרה רציף:   קומה:  ,32.436167,34.922872,0,,6500
1188,40202,הגיבורים/הנשיא וייצמן, רחוב:שדרות הנשיא וייצמן 53 עיר: חדרה רציף:   קומה:  ,32.439003,34.922755,0,,6500
1190,40205,הזית/הערבה, רחוב:  עיר: בנימינה גבעת עדה רציף:   קומה:  ,32.516655,34.923941,0,,9800
1191,40207,הגיבורים/הנשיא וייצמן, רחוב:הגיבורים 73 עיר: חדרה רציף:   קומה:  ,32.438194,34.923278,0,,6500
1192,40209,הגפן/וייצמן, רחוב:הגפן  עיר: אור עקיבא רציף:   קומה:  ,32.501291,34.924048,0,,1020
1194,40211,הרימון/היסמין, רחוב:הרימון 20 עיר: אור עקיבא רציף:   קומה:  ,32.497598,34.924251,0,,1020
1195,40212,הרברט סמואל/הגיבורים, רחוב:הרברט סמואל 80 עיר: חדרה רציף:   קומה:  ,32.435419,34.923142,0,,6500
1196,40213,הנשיא ויצמן/הגפן, רחוב:שדרות הנשיא וייצמן  עיר: אור עקיבא רציף:   קומה:  ,32.502391,34.923093,0,,1020
1197,40214,הנשיא וייצמן/לבוצקין, רחוב:שדרות הנשיא וייצמן 67 עיר: חדרה רציף:   קומה:  ,32.438454,34.924815,0,,6500
1198,40216,תמר/הגפן, רחוב:תמר  עיר: אור עקיבא רציף:   קומה:  ,32.499955,34.924795,0,,1020
1202,40221,אזור תעשיה, רחוב:שדרות שידלובסקי  עיר: אור עקיבא רציף:   קומה:  ,32.504857,34.925387,0,,1020
1203,40222,צומת גבעת חביבה, רחוב:574  עיר: מנשה רציף:   קומה:  ,32.457725,35.019372,0,,12483
1204,40223,צומת אלון, רחוב:65  עיר: פרדס חנה כרכור רציף:   קומה:  ,32.449112,34.961703,0,,12323
1205,40224,קופלוביץ/וייצמן, רחוב:בטי ויוסף קופלוביץ'  עיר: אור עקיבא רציף:   קומה:  ,32.503158,34.925663,0,,1020
1207,40227,הנשיא וייצמן/ירושלים, רחוב:שדרות הנשיא וייצמן 82 עיר: חדרה רציף:   קומה:  ,32.437864,34.926320,0,,6500
1208,40228,קניון, רחוב:שדרות הנשיא וייצמן  עיר: אור עקיבא רציף:   קומה:  ,32.501396,34.926540,0,,1020
1209,40230,קניון אורות, רחוב:שדרות הנשיא וייצמן  עיר: אור עקיבא רציף:   קומה:  ,32.501126,34.926734,0,,1020
1210,40232,חטיבת גולני/חברת עזרא, רחוב:חטיבת גולני 5 עיר: חדרה רציף:   קומה:  ,32.434511,34.927233,0,,6500
1214,40238,צה''ל/ארלוזורוב, רחוב:צה''ל 9 עיר: חדרה רציף:   קומה:  ,32.438365,34.927909,0,,6500
1216,40240,צומת בית חנניה, רחוב:4  עיר: חוף הכרמל רציף:   קומה:  ,32.533345,34.928702,0,,13165
1217,40241,צומת בית חנניה, רחוב:4  עיר: חוף הכרמל רציף:   קומה:  ,32.534573,34.928900,0,,13164
1219,40243,בית חנניה, רחוב:4  עיר: בנימינה גבעת עדה רציף:   קומה:  ,32.523128,34.929403,0,,13166
1220,40244,בית חנניה, רחוב:4  עיר: חוף הכרמל רציף:   קומה:  ,32.524064,34.929680,0,,13167
1222,40246,צה''ל/האקליפטוס, רחוב:צה''ל 29 עיר: חדרה רציף:   קומה:  ,32.439274,34.929769,0,,6500
1223,40247,צה''ל/האקליפטוס, רחוב:צה''ל 40 עיר: חדרה רציף:   קומה:  ,32.439432,34.930418,0,,6500
1224,40248,צומת בנימינה, רחוב:4  עיר: בנימינה גבעת עדה רציף:   קומה:  ,32.516446,34.929913,0,,13170
1225,40249,צומת בנימינה, רחוב:4  עיר: בנימינה גבעת עדה רציף:   קומה:  ,32.518351,34.930050,0,,13168
1227,40251,צומת בנימינה, רחוב:653  עיר: בנימינה גבעת עדה רציף:   קומה:  ,32.517476,34.930838,0,,9800
1228,40252,משרדי חברת חשמל/צה''ל, רחוב:צה''ל 51 עיר: חדרה רציף:   קומה:  ,32.440952,34.931872,0,,6500
1229,40253,צומת מעגן מיכאל, רחוב:4  עיר: חוף הכרמל רציף:   קומה:  ,32.556372,34.931537,0,,13163
1230,40254,צומת מעגן מיכאל, רחוב:4  עיר: חוף הכרמל רציף:   קומה:  ,32.557378,34.932279,0,,13162
1231,40255,משרדי חברת חשמל/צה''ל, רחוב:צה''ל 50 עיר: חדרה רציף:   קומה:  ,32.441546,34.932949,0,,6500
1233,40257,זיסו/יפו, רחוב:המשטרה  עיר: חיפה רציף:   קומה:  ,32.827351,34.987691,0,,4000
1234,40258,דרך העצמאות/הנדיב, רחוב:דרך העצמאות 54 עיר: בנימינה גבעת עדה רציף:   קומה:  ,32.523856,34.934897,0,,9800
1236,40260,דרך העצמאות/נורית, רחוב:דרך העצמאות 82 עיר: בנימינה גבעת עדה רציף:   קומה:  ,32.527124,34.935504,0,,9800
1238,40262,חטיבת הנחל/נחל צין, רחוב:חטיבת הנח''ל 39 עיר: חדרה רציף:   קומה:  ,32.431123,34.936463,0,,6500
1240,40264,בית אריזה/צה''ל, רחוב:  עיר: חדרה רציף:   קומה:  ,32.443305,34.937834,0,,6500
1243,40267,משטרה/שדרות ניל''י, רחוב:שדרות ניל''י  עיר: זכרון יעקב רציף:   קומה:  ,32.571946,34.938372,0,,9300
1245,40269,דרך העצמאות/אירית, רחוב:דרך העצמאות 34 עיר: בנימינה גבעת עדה רציף:   קומה:  ,32.522098,34.938195,0,,9800
1246,40270,בר יהודה/גשר פז, רחוב:דרך ישראל בר יהודה  עיר: חיפה רציף:   קומה:  ,32.798692,35.017746,0,,4000
1247,40271,בר יהודה/גשר גדוד 21, רחוב:דרך ישראל בר יהודה  עיר: חיפה רציף:   קומה:  ,32.795426,35.021788,0,,4000
1248,40272,דרך העצמאות/הנביאים, רחוב:דרך העצמאות 18 עיר: בנימינה גבעת עדה רציף:   קומה:  ,32.520148,34.940112,0,,9800
1249,40273,הסתדרות/צומת קרית אתא, רחוב:שדרות ההסתדרות 255 עיר: חיפה רציף:   קומה:  ,32.810104,35.068810,0,,4000
1250,40274,651/השיטה, רחוב:651  עיר: קיסריה רציף:   קומה:  ,32.479413,34.941063,0,,12221
1251,40275,יפה נוף/ההגנה, רחוב:יפה נוף  עיר: חדרה רציף:   קומה:  ,32.431950,34.941726,0,,6500
1252,40276,651/השיטה, רחוב:651  עיר: קיסריה רציף:   קומה:  ,32.479206,34.942276,0,,1167
1254,40278,בתי זיקוק/שדרות ההסתדרות, רחוב:שדרות ההסתדרות 111 עיר: חיפה רציף:   קומה:  ,32.796934,35.045620,0,,4000
1255,40279,דרך ניל''י/ההגנה, רחוב:דרך ניל''י 10 עיר: בנימינה גבעת עדה רציף:   קומה:  ,32.521744,34.942905,0,,9800
1256,40280,צומת חדרה מזרח, רחוב:  עיר: חדרה רציף:   קומה:  ,32.447662,34.942989,0,,6500
1257,40281,צומת חדרה מזרח, רחוב:65  עיר: חדרה רציף:   קומה:  ,32.447225,34.943832,0,,12331
1258,40282,ההסתדרות/ניוטון, רחוב:שדרות ההסתדרות 134 עיר: חיפה רציף:   קומה:  ,32.802633,35.053393,0,,4000
